[
  {
    "shortName": "Hornbach",
    "company": "HORNBACH BM 539",
    "street1": "Washingtonstraße 14",
    "street2": "",
    "zip": 1139,
    "city": "Dresden",
    "country": "Deutschland",
    "tel": "",
    "telBranch": "+49 351 853460",
    "mail": "",
    "web": "",
    "oez": "",
    "lat": 51.07844,
    "lng": 13.68905,
    "key": "Hornbach Dresden 01139 Washingtonstraße 14",
    "name": "Hornbach Dresden"
  },
  {
    "shortName": "Toom Baumarkt",
    "company": "",
    "street1": "Gompitzer Höhe 5",
    "street2": "",
    "zip": 1156,
    "city": "Dresden-Gompitz",
    "country": "Deutschland",
    "tel": "+49 351 21071910",
    "telBranch": "+49 351 21071910",
    "mail": "",
    "web": "",
    "oez": "",
    "lat": 51.03927,
    "lng": 13.63023,
    "key": "Toom Baumarkt Dresden-Gompitz 01156 Gompitzer Höhe 5",
    "name": "Toom Baumarkt Dresden-Gompitz"
  },
  {
    "shortName": "Hornbach",
    "company": "HORNBACH BM 602",
    "street1": "Dohnaerstraße 182",
    "street2": "",
    "zip": 1239,
    "city": "Dresden 2",
    "country": "Deutschland",
    "tel": "",
    "telBranch": "+49 351 655580",
    "mail": "",
    "web": "",
    "oez": "",
    "lat": 51.006,
    "lng": 13.78691,
    "key": "Hornbach Dresden 2 01239 Dohnaerstraße 182",
    "name": "Hornbach Dresden 2"
  },
  {
    "shortName": "Toom Baumarkt",
    "company": "",
    "street1": "Leubener Straße 61",
    "street2": "",
    "zip": 1279,
    "city": "Dresden-Laubegast",
    "country": "Deutschland",
    "tel": "+49 351 6556610",
    "telBranch": "+49 351 6556610",
    "mail": "",
    "web": "",
    "oez": "",
    "lat": 51.0179,
    "lng": 13.83156,
    "key": "Toom Baumarkt Dresden-Laubegast 01279 Leubener Straße 61",
    "name": "Toom Baumarkt Dresden-Laubegast"
  },
  {
    "shortName": "Toom Baumarkt",
    "company": "",
    "street1": "An der Ziegelei 4",
    "street2": "",
    "zip": 1454,
    "city": "Radeberg",
    "country": "Deutschland",
    "tel": "+49 3528 4878570",
    "telBranch": "+49 3528 4878570",
    "mail": "",
    "web": "",
    "oez": "",
    "lat": 51.1297,
    "lng": 13.91529,
    "key": "Toom Baumarkt Radeberg 01454 An der Ziegelei 4",
    "name": "Toom Baumarkt Radeberg"
  },
  {
    "shortName": "Toom Baumarkt",
    "company": "",
    "street1": "Riesapark 6",
    "street2": "",
    "zip": 1587,
    "city": "Riesa",
    "country": "Deutschland",
    "tel": "+49 3525 658710",
    "telBranch": "+49 3525 658710",
    "mail": "",
    "web": "",
    "oez": "",
    "lat": 51.29792,
    "lng": 13.2661,
    "key": "Toom Baumarkt Riesa 01587 Riesapark 6",
    "name": "Toom Baumarkt Riesa"
  },
  {
    "shortName": "Toom Baumarkt",
    "company": "",
    "street1": "Berghausstraße 7",
    "street2": "",
    "zip": 1662,
    "city": "Meißen",
    "country": "Deutschland",
    "tel": "+49 3521 76160",
    "telBranch": "+49 3521 76160",
    "mail": "",
    "web": "",
    "oez": "",
    "lat": 51.1757,
    "lng": 13.49908,
    "key": "Toom Baumarkt Meißen 01662 Berghausstraße 7",
    "name": "Toom Baumarkt Meißen"
  },
  {
    "shortName": "Toom Baumarkt",
    "company": "",
    "street1": "Schachtstraße 8c",
    "street2": "",
    "zip": 1705,
    "city": "Freital",
    "country": "Deutschland",
    "tel": "+49 351 2028310",
    "telBranch": "+49 351 2028310",
    "mail": "",
    "web": "",
    "oez": "",
    "lat": 51.00439,
    "lng": 13.64881,
    "key": "Toom Baumarkt Freital 01705 Schachtstraße 8c",
    "name": "Toom Baumarkt Freital"
  },
  {
    "shortName": "Toom Baumarkt",
    "company": "",
    "street1": "Lohmener Straße 12c",
    "street2": "",
    "zip": 1796,
    "city": "Pirna",
    "country": "Deutschland",
    "tel": "+49 3501 460110",
    "telBranch": "+49 3501 460110",
    "mail": "",
    "web": "",
    "oez": "",
    "lat": 50.97993,
    "lng": 13.94902,
    "key": "Toom Baumarkt Pirna 01796 Lohmener Straße 12c",
    "name": "Toom Baumarkt Pirna"
  },
  {
    "shortName": "Toom Baumarkt",
    "company": "",
    "street1": "Grünstraße 16",
    "street2": "",
    "zip": 1968,
    "city": "Senftenberg",
    "country": "Deutschland",
    "tel": "+49 3573 37350",
    "telBranch": "+49 3573 37350",
    "mail": "",
    "web": "",
    "oez": "",
    "lat": 51.5213,
    "lng": 14.01692,
    "key": "Toom Baumarkt Senftenberg 01968 Grünstraße 16",
    "name": "Toom Baumarkt Senftenberg"
  },
  {
    "shortName": "Toom Baumarkt",
    "company": "",
    "street1": "Liebenwerdaer Straße 46",
    "street2": "",
    "zip": 1979,
    "city": "Lauchhammer",
    "country": "Deutschland",
    "tel": "+49 3574 4678910",
    "telBranch": "+49 3574 4678910",
    "mail": "",
    "web": "",
    "oez": "",
    "lat": 51.46998,
    "lng": 13.76145,
    "key": "Toom Baumarkt Lauchhammer 01979 Liebenwerdaer Straße 46",
    "name": "Toom Baumarkt Lauchhammer"
  },
  {
    "shortName": "OBI",
    "company": "",
    "street1": "Alte Dresdner Str. 4",
    "street2": "",
    "zip": 2625,
    "city": "Bautzen",
    "country": "Deutschland",
    "tel": "",
    "telBranch": "+49 3591 52960",
    "mail": "",
    "web": "",
    "oez": "",
    "lat": 51.17859,
    "lng": 14.39553,
    "key": "OBI Bautzen 02625 Alte Dresdner Str. 4",
    "name": "OBI Bautzen"
  },
  {
    "shortName": "OBI",
    "company": "",
    "street1": "Joh.-And.-Schubert-Str. 13 ",
    "street2": "",
    "zip": 2730,
    "city": "Ebersbach-Neugersdorf",
    "country": "Deutschland",
    "tel": "",
    "telBranch": "+49 3586 30230",
    "mail": "",
    "web": "",
    "oez": "",
    "lat": 50.99882,
    "lng": 14.61617,
    "key": "OBI Ebersbach-Neugersdorf 02730 Joh.-And.-Schubert-Str. 13 ",
    "name": "OBI Ebersbach-Neugersdorf"
  },
  {
    "shortName": "Toom Baumarkt",
    "company": "",
    "street1": "Hochwaldstraße 20",
    "street2": "",
    "zip": 2763,
    "city": "Zittau",
    "country": "Deutschland",
    "tel": "+49 3583 688420",
    "telBranch": "+49 3583 688420",
    "mail": "",
    "web": "",
    "oez": "",
    "lat": 50.88727,
    "lng": 14.80088,
    "key": "Toom Baumarkt Zittau 02763 Hochwaldstraße 20",
    "name": "Toom Baumarkt Zittau"
  },
  {
    "shortName": "Toom Baumarkt",
    "company": "",
    "street1": "Am Hopfenfeld 2",
    "street2": "",
    "zip": 2828,
    "city": "Görlitz",
    "country": "Deutschland",
    "tel": "+49 3581 4294910",
    "telBranch": "+49 3581 4294910",
    "mail": "",
    "web": "",
    "oez": "",
    "lat": 51.17031,
    "lng": 14.96707,
    "key": "Toom Baumarkt Görlitz 02828 Am Hopfenfeld 2",
    "name": "Toom Baumarkt Görlitz"
  },
  {
    "shortName": "Hornbach",
    "company": "HORNBACH  BM 554",
    "street1": "EbersbachB. Görlitz/B115 5-7",
    "street2": "",
    "zip": 2829,
    "city": "Görlitz",
    "country": "Deutschland",
    "tel": "",
    "telBranch": "+49 358138100",
    "mail": "",
    "web": "",
    "oez": "",
    "lat": 51.15492,
    "lng": 14.98648,
    "key": "Hornbach Görlitz 02829 EbersbachB. Görlitz/B115 5-7",
    "name": "Hornbach Görlitz"
  },
  {
    "shortName": "Toom Baumarkt",
    "company": "",
    "street1": "Halbendorfer Weg 3",
    "street2": "",
    "zip": 2943,
    "city": "Weißwasser/Oberlausitz",
    "country": "Deutschland",
    "tel": "+49 3576 211610",
    "telBranch": "+49 3576 211610",
    "mail": "",
    "web": "",
    "oez": "",
    "lat": 51.51148,
    "lng": 14.61234,
    "key": "Toom Baumarkt Weißwasser/Oberlausitz 02943 Halbendorfer Weg 3",
    "name": "Toom Baumarkt Weißwasser/Oberlausitz"
  },
  {
    "shortName": "Toom Baumarkt",
    "company": "",
    "street1": "Am Wasserschloß 2",
    "street2": "",
    "zip": 2977,
    "city": "Hoyerswerda",
    "country": "Deutschland",
    "tel": "+49 3571 48190",
    "telBranch": "+49 3571 48190",
    "mail": "",
    "web": "",
    "oez": "",
    "lat": 51.45812,
    "lng": 14.26843,
    "key": "Toom Baumarkt Hoyerswerda 02977 Am Wasserschloß 2",
    "name": "Toom Baumarkt Hoyerswerda"
  },
  {
    "shortName": "BAUHAUS",
    "company": "",
    "street1": "Paul-Greifzu-Straße 2",
    "street2": "",
    "zip": 3042,
    "city": "Cottbus",
    "country": "Deutschland",
    "tel": "",
    "telBranch": "+49 355 4943600",
    "mail": "",
    "web": "",
    "oez": "",
    "lat": 51.76411,
    "lng": 14.35984,
    "key": "BAUHAUS Cottbus 03042 Paul-Greifzu-Straße 2",
    "name": "BAUHAUS Cottbus"
  },
  {
    "shortName": "Toom Baumarkt",
    "company": "",
    "street1": "Gerhart-Hauptmann-Straße 15",
    "street2": "",
    "zip": 3044,
    "city": "Cottbus-Schmellwitz",
    "country": "Deutschland",
    "tel": "+49 355 3834260",
    "telBranch": "+49 355 3834260",
    "mail": "",
    "web": "",
    "oez": "",
    "lat": 51.77231,
    "lng": 14.34286,
    "key": "Toom Baumarkt Cottbus-Schmellwitz 03044 Gerhart-Hauptmann-Straße 15",
    "name": "Toom Baumarkt Cottbus-Schmellwitz"
  },
  {
    "shortName": "Toom Baumarkt",
    "company": "",
    "street1": "An der Lusatia 23-24",
    "street2": "",
    "zip": 3130,
    "city": "Spremberg",
    "country": "Deutschland",
    "tel": "+49 3563 39140",
    "telBranch": "+49 3563 39140",
    "mail": "",
    "web": "",
    "oez": "",
    "lat": 51.55878,
    "lng": 14.36004,
    "key": "Toom Baumarkt Spremberg 03130 An der Lusatia 23-24",
    "name": "Toom Baumarkt Spremberg"
  },
  {
    "shortName": "Hellweg",
    "company": "",
    "street1": "Gewerbestraße 32",
    "street2": "",
    "zip": 3172,
    "city": "Deulowitz/Guben ",
    "country": "Deutschland",
    "tel": "+49 3561 55610",
    "telBranch": "+49 3561 55610",
    "mail": "",
    "web": "",
    "oez": "",
    "lat": 51.95475,
    "lng": 14.66306,
    "key": "Hellweg Deulowitz/Guben  03172 Gewerbestraße 32",
    "name": "Hellweg Deulowitz/Guben "
  },
  {
    "shortName": "Toom Baumarkt",
    "company": "",
    "street1": "Am Kaufland 1",
    "street2": "",
    "zip": 3222,
    "city": "Lübbenau",
    "country": "Deutschland",
    "tel": "+49 3542 8942111",
    "telBranch": "+49 3542 8942111",
    "mail": "",
    "web": "",
    "oez": "",
    "lat": 51.86661,
    "lng": 13.93996,
    "key": "Toom Baumarkt Lübbenau 03222 Am Kaufland 1",
    "name": "Toom Baumarkt Lübbenau"
  },
  {
    "shortName": "Hornbach",
    "company": "HORNBACH  BM 540",
    "street1": "Duebener Landstraße 7",
    "street2": "",
    "zip": 4129,
    "city": "Leipzig",
    "country": "Deutschland",
    "tel": "",
    "telBranch": "+49 341 904290",
    "mail": "",
    "web": "",
    "oez": "",
    "lat": 51.38212,
    "lng": 12.38616,
    "key": "Hornbach Leipzig 04129 Duebener Landstraße 7",
    "name": "Hornbach Leipzig"
  },
  {
    "shortName": "Hellweg",
    "company": "",
    "street1": "Hallesche Straße 214",
    "street2": "",
    "zip": 4159,
    "city": "Leipzig-Lützschena ",
    "country": "Deutschland",
    "tel": "+49 341 468120",
    "telBranch": "+49 341 468120",
    "mail": "",
    "web": "",
    "oez": "",
    "lat": 51.38578,
    "lng": 12.2639,
    "key": "Hellweg Leipzig-Lützschena  04159 Hallesche Straße 214",
    "name": "Hellweg Leipzig-Lützschena "
  },
  {
    "shortName": "Toom Baumarkt",
    "company": "",
    "street1": "Gießerstraße 37",
    "street2": "",
    "zip": 4229,
    "city": "Leipzig-Plagwitz",
    "country": "Deutschland",
    "tel": "+49 341 4873360",
    "telBranch": "+49 341 4873360",
    "mail": "",
    "web": "",
    "oez": "",
    "lat": 51.3240162,
    "lng": 12.3271096,
    "key": "Toom Baumarkt Leipzig-Plagwitz 04229 Gießerstraße 37",
    "name": "Toom Baumarkt Leipzig-Plagwitz"
  },
  {
    "shortName": "Toom Baumarkt",
    "company": "",
    "street1": "Riesaer Straße 102",
    "street2": "",
    "zip": 4319,
    "city": "Leipzig-Engelsdorf",
    "country": "Deutschland",
    "tel": "+49 341 259300",
    "telBranch": "+49 341 259300",
    "mail": "",
    "web": "",
    "oez": "",
    "lat": 51.34511,
    "lng": 12.47632,
    "key": "Toom Baumarkt Leipzig-Engelsdorf 04319 Riesaer Straße 102",
    "name": "Toom Baumarkt Leipzig-Engelsdorf"
  },
  {
    "shortName": "Toom Baumarkt",
    "company": "",
    "street1": "Torgauer Straße 271",
    "street2": "",
    "zip": 4347,
    "city": "Leipzig-Heiterblick",
    "country": "Deutschland",
    "tel": "+49 341 23490110",
    "telBranch": "+49 341 23490110",
    "mail": "",
    "web": "",
    "oez": "",
    "lat": 51.36524,
    "lng": 12.45344,
    "key": "Toom Baumarkt Leipzig-Heiterblick 04347 Torgauer Straße 271",
    "name": "Toom Baumarkt Leipzig-Heiterblick"
  },
  {
    "shortName": "BAUHAUS",
    "company": "",
    "street1": "Handelsstrasse 3",
    "street2": "",
    "zip": 4356,
    "city": "Leipzig",
    "country": "Deutschland",
    "tel": "",
    "telBranch": "+ 49 341 6003780",
    "mail": "",
    "web": "",
    "oez": "",
    "lat": 51.40046,
    "lng": 12.3991,
    "key": "BAUHAUS Leipzig 04356 Handelsstrasse 3",
    "name": "BAUHAUS Leipzig"
  },
  {
    "shortName": "Toom Baumarkt",
    "company": "",
    "street1": "Städtelner Straße 54",
    "street2": "",
    "zip": 4416,
    "city": "Markkleeberg",
    "country": "Deutschland",
    "tel": "+49 341 35014810",
    "telBranch": "+49 341 35014810",
    "mail": "",
    "web": "",
    "oez": "",
    "lat": 51.27201,
    "lng": 12.36511,
    "key": "Toom Baumarkt Markkleeberg 04416 Städtelner Straße 54",
    "name": "Toom Baumarkt Markkleeberg"
  },
  {
    "shortName": "Hellweg",
    "company": "",
    "street1": "Raiffeisenstraße 1",
    "street2": "",
    "zip": 4509,
    "city": "Delitzsch ",
    "country": "Deutschland",
    "tel": "+49 34202 3990",
    "telBranch": "+49 34202 3990",
    "mail": "",
    "web": "",
    "oez": "",
    "lat": 51.5121343,
    "lng": 12.3350861,
    "key": "Hellweg Delitzsch  04509 Raiffeisenstraße 1",
    "name": "Hellweg Delitzsch "
  },
  {
    "shortName": "Toom Baumarkt",
    "company": "",
    "street1": "Richard-Köberlin-Straße 2",
    "street2": "",
    "zip": 4720,
    "city": "Döbeln",
    "country": "Deutschland",
    "tel": "+49 3431 7057210",
    "telBranch": "+49 3431 7057210",
    "mail": "",
    "web": "",
    "oez": "",
    "lat": 51.1187,
    "lng": 13.14631,
    "key": "Toom Baumarkt Döbeln 04720 Richard-Köberlin-Straße 2",
    "name": "Toom Baumarkt Döbeln"
  },
  {
    "shortName": "Toom Baumarkt",
    "company": "",
    "street1": "An der Schondorfer Mark 1",
    "street2": "",
    "zip": 4838,
    "city": "Eilenburg",
    "country": "Deutschland",
    "tel": "+49 3423 7584210",
    "telBranch": "+49 3423 7584210",
    "mail": "",
    "web": "",
    "oez": "",
    "lat": 51.46601,
    "lng": 12.67615,
    "key": "Toom Baumarkt Eilenburg 04838 An der Schondorfer Mark 1",
    "name": "Toom Baumarkt Eilenburg"
  },
  {
    "shortName": "Toom Baumarkt",
    "company": "",
    "street1": "Lauchhammerstraße 60",
    "street2": "",
    "zip": 4910,
    "city": "Elsterwerda",
    "country": "Deutschland",
    "tel": "+49 3533 607330",
    "telBranch": "+49 3533 607330",
    "mail": "",
    "web": "",
    "oez": "",
    "lat": 51.46528,
    "lng": 13.53344,
    "key": "Toom Baumarkt Elsterwerda 04910 Lauchhammerstraße 60",
    "name": "Toom Baumarkt Elsterwerda"
  },
  {
    "shortName": "Toom Baumarkt",
    "company": "",
    "street1": "Döckritzer Straße 2",
    "street2": "",
    "zip": 6118,
    "city": "Halle-Trotha",
    "country": "Deutschland",
    "tel": "+49 345 529360",
    "telBranch": "+49 345 529360",
    "mail": "",
    "web": "",
    "oez": "",
    "lat": 51.52381,
    "lng": 11.95198,
    "key": "Toom Baumarkt Halle-Trotha 06118 Döckritzer Straße 2",
    "name": "Toom Baumarkt Halle-Trotha"
  },
  {
    "shortName": "Hornbach",
    "company": "HORNBACH BM 636",
    "street1": "Delitzscher Str. 54",
    "street2": "",
    "zip": 6122,
    "city": "Halle",
    "country": "Deutschland",
    "tel": "",
    "telBranch": "+49 345 5667790",
    "mail": "",
    "web": "",
    "oez": "",
    "lat": 51.47816,
    "lng": 12.00363,
    "key": "Hornbach Halle 06122 Delitzscher Str. 54",
    "name": "Hornbach Halle"
  },
  {
    "shortName": "Toom Baumarkt",
    "company": "",
    "street1": "Alte Heerstraße 260",
    "street2": "",
    "zip": 6132,
    "city": "Halle-Silberhöhe",
    "country": "Deutschland",
    "tel": "+49 345 779900",
    "telBranch": "+49 345 779900",
    "mail": "",
    "web": "",
    "oez": "",
    "lat": 51.43588,
    "lng": 11.97569,
    "key": "Toom Baumarkt Halle-Silberhöhe 06132 Alte Heerstraße 260",
    "name": "Toom Baumarkt Halle-Silberhöhe"
  },
  {
    "shortName": "Hellweg",
    "company": "",
    "street1": "Merseburger Straße 345",
    "street2": "",
    "zip": 6132,
    "city": "Halle ",
    "country": "Deutschland",
    "tel": "+49 345 779190",
    "telBranch": "+49 345 779190",
    "mail": "",
    "web": "",
    "oez": "",
    "lat": 51.44148,
    "lng": 11.98473,
    "key": "Hellweg Halle  06132 Merseburger Straße 345",
    "name": "Hellweg Halle "
  },
  {
    "shortName": "Toom Baumarkt",
    "company": "",
    "street1": "An der Lauchstädter Straße 6",
    "street2": "",
    "zip": 6179,
    "city": "Angersdorf",
    "country": "Deutschland",
    "tel": "+49 345 68016510",
    "telBranch": "+49 345 68016510",
    "mail": "",
    "web": "",
    "oez": "",
    "lat": 51.4634,
    "lng": 11.9087,
    "key": "Toom Baumarkt Angersdorf 06179 An der Lauchstädter Straße 6",
    "name": "Toom Baumarkt Angersdorf"
  },
  {
    "shortName": "Toom Baumarkt",
    "company": "",
    "street1": "Querfurter Straße 8",
    "street2": "",
    "zip": 6217,
    "city": "Merseburg",
    "country": "Deutschland",
    "tel": "+49 3461 289510",
    "telBranch": "+49 3461 289510",
    "mail": "",
    "web": "",
    "oez": "",
    "lat": 51.37155,
    "lng": 11.97796,
    "key": "Toom Baumarkt Merseburg 06217 Querfurter Straße 8",
    "name": "Toom Baumarkt Merseburg"
  },
  {
    "shortName": "Hellweg",
    "company": "",
    "street1": "An der Zolltafel 3-4",
    "street2": "",
    "zip": 6295,
    "city": "Lutherstadt-Eisleben ",
    "country": "Deutschland",
    "tel": "+49 3475 72000",
    "telBranch": "+49 3475 72000",
    "mail": "",
    "web": "",
    "oez": "",
    "lat": 51.5130262,
    "lng": 11.5703515,
    "key": "Hellweg Lutherstadt-Eisleben  06295 An der Zolltafel 3-4",
    "name": "Hellweg Lutherstadt-Eisleben "
  },
  {
    "shortName": "Toom Baumarkt",
    "company": "",
    "street1": "Langenfelder Straße 8",
    "street2": "",
    "zip": 6366,
    "city": "Köthen",
    "country": "Deutschland",
    "tel": "+49 3496 309210",
    "telBranch": "+49 3496 309210",
    "mail": "",
    "web": "",
    "oez": "",
    "lat": 51.74675,
    "lng": 11.94838,
    "key": "Toom Baumarkt Köthen 06366 Langenfelder Straße 8",
    "name": "Toom Baumarkt Köthen"
  },
  {
    "shortName": "Toom Baumarkt",
    "company": "",
    "street1": "Kalistraße 11",
    "street2": "",
    "zip": 6406,
    "city": "Bernburg",
    "country": "Deutschland",
    "tel": "+49 3471 346210",
    "telBranch": "+49 3471 346210",
    "mail": "",
    "web": "",
    "oez": "",
    "lat": 51.77725,
    "lng": 11.7377,
    "key": "Toom Baumarkt Bernburg 06406 Kalistraße 11",
    "name": "Toom Baumarkt Bernburg"
  },
  {
    "shortName": "Hellweg",
    "company": "",
    "street1": "Güstener Straße 19c",
    "street2": "",
    "zip": 6449,
    "city": "Aschersleben ",
    "country": "Deutschland",
    "tel": "+49 3473 92730",
    "telBranch": "+49 3473 92730",
    "mail": "",
    "web": "",
    "oez": "",
    "lat": 51.76734,
    "lng": 11.48398,
    "key": "Hellweg Aschersleben  06449 Güstener Straße 19c",
    "name": "Hellweg Aschersleben "
  },
  {
    "shortName": "Hellweg",
    "company": "",
    "street1": "Magdeburger Straße 15",
    "street2": "",
    "zip": 6484,
    "city": "Quedlinburg ",
    "country": "Deutschland",
    "tel": "+49 3946 78000",
    "telBranch": "+49 3946 78000",
    "mail": "",
    "web": "",
    "oez": "",
    "lat": 51.79246,
    "lng": 11.17302,
    "key": "Hellweg Quedlinburg  06484 Magdeburger Straße 15",
    "name": "Hellweg Quedlinburg "
  },
  {
    "shortName": "Toom Baumarkt",
    "company": "",
    "street1": "Drei Wege 5",
    "street2": "",
    "zip": 6667,
    "city": "Weißenfels",
    "country": "Deutschland",
    "tel": "+49 3443 341510",
    "telBranch": "+49 3443 341510",
    "mail": "",
    "web": "",
    "oez": "",
    "lat": 51.19846,
    "lng": 11.99854,
    "key": "Toom Baumarkt Weißenfels 06667 Drei Wege 5",
    "name": "Toom Baumarkt Weißenfels"
  },
  {
    "shortName": "Toom Baumarkt",
    "company": "",
    "street1": "Hainichener Dorfstraße 1",
    "street2": "",
    "zip": 6712,
    "city": "Zeitz",
    "country": "Deutschland",
    "tel": "+49 3441 616960",
    "telBranch": "+49 3441 616960",
    "mail": "",
    "web": "",
    "oez": "",
    "lat": 51.03736,
    "lng": 12.16438,
    "key": "Toom Baumarkt Zeitz 06712 Hainichener Dorfstraße 1",
    "name": "Toom Baumarkt Zeitz"
  },
  {
    "shortName": "Hellweg",
    "company": "",
    "street1": "Weissenfelser Straße",
    "street2": "",
    "zip": 6712,
    "city": "Zeitz ",
    "country": "Deutschland",
    "tel": "+49 3441 61840",
    "telBranch": "+49 3441 61840",
    "mail": "",
    "web": "",
    "oez": "",
    "lat": 51.066,
    "lng": 12.1241,
    "key": "Hellweg Zeitz  06712 Weissenfelser Straße",
    "name": "Hellweg Zeitz "
  },
  {
    "shortName": "Toom Baumarkt",
    "company": "",
    "street1": "Friedensstraße 75e",
    "street2": "",
    "zip": 6766,
    "city": "Bitterfeld-Wolfen",
    "country": "Deutschland",
    "tel": "+49 3494 362810",
    "telBranch": "+49 3494 362810",
    "mail": "",
    "web": "",
    "oez": "",
    "lat": 51.69474,
    "lng": 12.25761,
    "key": "Toom Baumarkt Bitterfeld-Wolfen 06766 Friedensstraße 75e",
    "name": "Toom Baumarkt Bitterfeld-Wolfen"
  },
  {
    "shortName": "Toom Baumarkt",
    "company": "",
    "street1": "Tornauer Weg 6",
    "street2": "",
    "zip": 6862,
    "city": "Dessau-Roßlau",
    "country": "Deutschland",
    "tel": "+49 34901 599210",
    "telBranch": "+49 34901 599210",
    "mail": "",
    "web": "",
    "oez": "",
    "lat": 51.89462,
    "lng": 12.22347,
    "key": "Toom Baumarkt Dessau-Roßlau 06862 Tornauer Weg 6",
    "name": "Toom Baumarkt Dessau-Roßlau"
  },
  {
    "shortName": "Toom Baumarkt",
    "company": "",
    "street1": "Berliner Chaussee 72",
    "street2": "",
    "zip": 6886,
    "city": "Lutherstadt Wittenberg",
    "country": "Deutschland",
    "tel": "+49 3491 4200110",
    "telBranch": "+49 3491 4200110",
    "mail": "",
    "web": "",
    "oez": "",
    "lat": 51.88992,
    "lng": 12.66647,
    "key": "Toom Baumarkt Lutherstadt Wittenberg 06886 Berliner Chaussee 72",
    "name": "Toom Baumarkt Lutherstadt Wittenberg"
  },
  {
    "shortName": "Toom Baumarkt",
    "company": "",
    "street1": "Mittlerer Watzenbach 4",
    "street2": "",
    "zip": 7318,
    "city": "Saalfeld",
    "country": "Deutschland",
    "tel": "+49 3671 4557610",
    "telBranch": "+49 3671 4557610",
    "mail": "",
    "web": "",
    "oez": "",
    "lat": 50.6588,
    "lng": 11.34552,
    "key": "Toom Baumarkt Saalfeld 07318 Mittlerer Watzenbach 4",
    "name": "Toom Baumarkt Saalfeld"
  },
  {
    "shortName": "BAUHAUS",
    "company": "",
    "street1": "Elsterdamm 5",
    "street2": "",
    "zip": 7548,
    "city": "Gera",
    "country": "Deutschland",
    "tel": "",
    "telBranch": "+49 365 5515030",
    "mail": "",
    "web": "",
    "oez": "",
    "lat": 50.8683,
    "lng": 12.07789,
    "key": "BAUHAUS Gera 07548 Elsterdamm 5",
    "name": "BAUHAUS Gera"
  },
  {
    "shortName": "Hornbach",
    "company": "HORNBACH BM 551",
    "street1": "Brüsseler Straße 1",
    "street2": "",
    "zip": 7747,
    "city": "Jena-Lobeda",
    "country": "Deutschland",
    "tel": "",
    "telBranch": "+49 3641 39770",
    "mail": "",
    "web": "",
    "oez": "",
    "lat": 50.8762,
    "lng": 11.61715,
    "key": "Hornbach Jena-Lobeda 07747 Brüsseler Straße 1",
    "name": "Hornbach Jena-Lobeda"
  },
  {
    "shortName": "OBI",
    "company": "",
    "street1": "Loebstedter Str. 54 ",
    "street2": "",
    "zip": 7749,
    "city": "Jena",
    "country": "Deutschland",
    "tel": "",
    "telBranch": "+49 3641 45750",
    "mail": "",
    "web": "",
    "oez": "",
    "lat": 50.94117,
    "lng": 11.59845,
    "key": "OBI Jena 07749 Loebstedter Str. 54 ",
    "name": "OBI Jena"
  },
  {
    "shortName": "Hellweg",
    "company": "",
    "street1": "Plauensche Straße 1c",
    "street2": "",
    "zip": 7973,
    "city": "Greiz ",
    "country": "Deutschland",
    "tel": "+49 3661 87770",
    "telBranch": "+49 3661 87770",
    "mail": "",
    "web": "",
    "oez": "",
    "lat": 50.64184,
    "lng": 12.19531,
    "key": "Hellweg Greiz  07973 Plauensche Straße 1c",
    "name": "Hellweg Greiz "
  },
  {
    "shortName": "Hellweg",
    "company": "",
    "street1": "Leipziger Straße 213",
    "street2": "",
    "zip": 8058,
    "city": "Zwickau ",
    "country": "Deutschland",
    "tel": "+49 375 390370",
    "telBranch": "+49 375 390370",
    "mail": "",
    "web": "",
    "oez": "",
    "lat": 50.75104,
    "lng": 12.482,
    "key": "Hellweg Zwickau  08058 Leipziger Straße 213",
    "name": "Hellweg Zwickau "
  },
  {
    "shortName": "Toom Baumarkt",
    "company": "",
    "street1": "Plauensche Straße 3",
    "street2": "",
    "zip": 8223,
    "city": "Falkenstein/Vogtland",
    "country": "Deutschland",
    "tel": "+49 3745 75170",
    "telBranch": "+49 3745 75170",
    "mail": "",
    "web": "",
    "oez": "",
    "lat": 50.47747,
    "lng": 12.36367,
    "key": "Toom Baumarkt Falkenstein/Vogtland 08223 Plauensche Straße 3",
    "name": "Toom Baumarkt Falkenstein/Vogtland"
  },
  {
    "shortName": "Hellweg",
    "company": "",
    "street1": "Lengenfelder Straße 35",
    "street2": "",
    "zip": 8228,
    "city": "Rodewisch ",
    "country": "Deutschland",
    "tel": "+49 3744 40970",
    "telBranch": "+49 3744 40970",
    "mail": "",
    "web": "",
    "oez": "",
    "lat": 50.54079,
    "lng": 12.39479,
    "key": "Hellweg Rodewisch  08228 Lengenfelder Straße 35",
    "name": "Hellweg Rodewisch "
  },
  {
    "shortName": "Toom Baumarkt",
    "company": "",
    "street1": "Prof.-Dr.-Konrad-Zuse-Straße 1",
    "street2": "",
    "zip": 8289,
    "city": "Schneeberg",
    "country": "Deutschland",
    "tel": "+49 3772 371410",
    "telBranch": "+49 3772 371410",
    "mail": "",
    "web": "",
    "oez": "",
    "lat": 50.60416,
    "lng": 12.64687,
    "key": "Toom Baumarkt Schneeberg 08289 Prof.-Dr.-Konrad-Zuse-Straße 1",
    "name": "Toom Baumarkt Schneeberg"
  },
  {
    "shortName": "Toom Baumarkt",
    "company": "",
    "street1": "Alte Jösnitzer Straße 90",
    "street2": "",
    "zip": 8525,
    "city": "Plauen-Kauschwitz",
    "country": "Deutschland",
    "tel": "+49 3741 4047910",
    "telBranch": "+49 3741 4047910",
    "mail": "",
    "web": "",
    "oez": "",
    "lat": 50.52543,
    "lng": 12.09442,
    "key": "Toom Baumarkt Plauen-Kauschwitz 08525 Alte Jösnitzer Straße 90",
    "name": "Toom Baumarkt Plauen-Kauschwitz"
  },
  {
    "shortName": "BAUHAUS",
    "company": "",
    "street1": "Äußere Reichenbacher Str. 80",
    "street2": "",
    "zip": 8526,
    "city": "Plauen",
    "country": "Deutschland",
    "tel": "",
    "telBranch": "+49 3741 48890",
    "mail": "",
    "web": "",
    "oez": "",
    "lat": 50.49609,
    "lng": 12.17901,
    "key": "BAUHAUS Plauen 08526 Äußere Reichenbacher Str. 80",
    "name": "BAUHAUS Plauen"
  },
  {
    "shortName": "Toom Baumarkt",
    "company": "",
    "street1": "Untermarxgrüner Straße 21",
    "street2": "",
    "zip": 8606,
    "city": "Oelsnitz/Vogtland",
    "country": "Deutschland",
    "tel": "+49 37421 4680",
    "telBranch": "+49 37421 4680",
    "mail": "",
    "web": "",
    "oez": "",
    "lat": 50.42696,
    "lng": 12.17362,
    "key": "Toom Baumarkt Oelsnitz/Vogtland 08606 Untermarxgrüner Straße 21",
    "name": "Toom Baumarkt Oelsnitz/Vogtland"
  },
  {
    "shortName": "Hellweg",
    "company": "",
    "street1": "Werner-Seelenbinder Straße 5",
    "street2": "",
    "zip": 9120,
    "city": "Chemnitz II ",
    "country": "Deutschland",
    "tel": "+49 371 523960",
    "telBranch": "+49 371 523960",
    "mail": "",
    "web": "",
    "oez": "",
    "lat": 50.80356,
    "lng": 12.91336,
    "key": "Hellweg Chemnitz II  09120 Werner-Seelenbinder Straße 5",
    "name": "Hellweg Chemnitz II "
  },
  {
    "shortName": "Hornbach",
    "company": "HORNBACH  BM 546",
    "street1": "Stollberger Straße 184",
    "street2": "",
    "zip": 9122,
    "city": "Chemnitz-Markersdorf",
    "country": "Deutschland",
    "tel": "",
    "telBranch": "+49 371 281620",
    "mail": "",
    "web": "",
    "oez": "",
    "lat": 50.795075,
    "lng": 12.8813879,
    "key": "Hornbach Chemnitz-Markersdorf 09122 Stollberger Straße 184",
    "name": "Hornbach Chemnitz-Markersdorf"
  },
  {
    "shortName": "Hellweg",
    "company": "",
    "street1": "Zschopauer Straße 273",
    "street2": "",
    "zip": 9126,
    "city": "Chemnitz III ",
    "country": "Deutschland",
    "tel": "+49 371 533380",
    "telBranch": "+49 371 533380",
    "mail": "",
    "web": "",
    "oez": "",
    "lat": 50.81488,
    "lng": 12.95479,
    "key": "Hellweg Chemnitz III  09126 Zschopauer Straße 273",
    "name": "Hellweg Chemnitz III "
  },
  {
    "shortName": "Toom Baumarkt",
    "company": "",
    "street1": "Planitzwiese  2-8",
    "street2": "",
    "zip": 9130,
    "city": "Chemnitz-Sonnenberg",
    "country": "Deutschland",
    "tel": "+49 371 278079310",
    "telBranch": "+49 371 278079310",
    "mail": "",
    "web": "",
    "oez": "",
    "lat": 50.84021,
    "lng": 12.95048,
    "key": "Toom Baumarkt Chemnitz-Sonnenberg 09130 Planitzwiese  2-8",
    "name": "Toom Baumarkt Chemnitz-Sonnenberg"
  },
  {
    "shortName": "Toom Baumarkt",
    "company": "",
    "street1": "Ringstraße 25",
    "street2": "",
    "zip": 9247,
    "city": "Chemnitz-Röhrsdorf",
    "country": "Deutschland",
    "tel": "+49 3722 5070",
    "telBranch": "+49 3722 5070",
    "mail": "",
    "web": "",
    "oez": "",
    "lat": 50.86611,
    "lng": 12.86479,
    "key": "Toom Baumarkt Chemnitz-Röhrsdorf 09247 Ringstraße 25",
    "name": "Toom Baumarkt Chemnitz-Röhrsdorf"
  },
  {
    "shortName": "Toom Baumarkt",
    "company": "",
    "street1": "Gewerbegebiet an der B95 10",
    "street2": "",
    "zip": 9427,
    "city": "Ehrenfriedersdorf",
    "country": "Deutschland",
    "tel": "+49 37341 489010",
    "telBranch": "+49 37341 489010",
    "mail": "",
    "web": "",
    "oez": "",
    "lat": 50.63483,
    "lng": 12.96166,
    "key": "Toom Baumarkt Ehrenfriedersdorf 09427 Gewerbegebiet an der B95 10",
    "name": "Toom Baumarkt Ehrenfriedersdorf"
  },
  {
    "shortName": "OBI",
    "company": "",
    "street1": "Gewerbering 2",
    "street2": "",
    "zip": 9456,
    "city": "Annberg Buchholz",
    "country": "Deutschland",
    "tel": "",
    "telBranch": "+49 3733 14050",
    "mail": "",
    "web": "",
    "oez": "",
    "lat": 50.59797,
    "lng": 13.02143,
    "key": "OBI Annberg Buchholz 09456 Gewerbering 2",
    "name": "OBI Annberg Buchholz"
  },
  {
    "shortName": "Toom Baumarkt",
    "company": "",
    "street1": "Am Lautengrund 2",
    "street2": "",
    "zip": 9496,
    "city": "Marienberg",
    "country": "Deutschland",
    "tel": "+49 3735 61537",
    "telBranch": "+49 3735 61537",
    "mail": "",
    "web": "",
    "oez": "",
    "lat": 50.6579,
    "lng": 13.15628,
    "key": "Toom Baumarkt Marienberg 09496 Am Lautengrund 2",
    "name": "Toom Baumarkt Marienberg"
  },
  {
    "shortName": "Hellweg",
    "company": "",
    "street1": "Dresdner Straße 52",
    "street2": "",
    "zip": 9599,
    "city": "Freiberg ",
    "country": "Deutschland",
    "tel": "+49 3731 26360",
    "telBranch": "+49 3731 26360",
    "mail": "",
    "web": "",
    "oez": "",
    "lat": 50.91369,
    "lng": 13.36292,
    "key": "Hellweg Freiberg  09599 Dresdner Straße 52",
    "name": "Hellweg Freiberg "
  },
  {
    "shortName": "Hellweg",
    "company": "",
    "street1": "An der Ostbahn 3",
    "street2": "",
    "zip": 10243,
    "city": "Berlin-Friedrichshain ",
    "country": "Deutschland",
    "tel": "+49 30 29363820",
    "telBranch": "+49 30 29363820",
    "mail": "",
    "web": "",
    "oez": "",
    "lat": 52.50977,
    "lng": 13.43978,
    "key": "Hellweg Berlin-Friedrichshain  10243 An der Ostbahn 3",
    "name": "Hellweg Berlin-Friedrichshain "
  },
  {
    "shortName": "Toom Baumarkt",
    "company": "",
    "street1": "Hermann-Blankenstein-Straße 44",
    "street2": "",
    "zip": 10249,
    "city": "Berlin-Friedrichshain",
    "country": "Deutschland",
    "tel": "+49 30 46776210",
    "telBranch": "+49 30 46776210",
    "mail": "",
    "web": "",
    "oez": "",
    "lat": 52.52263,
    "lng": 13.46715,
    "key": "Toom Baumarkt Berlin-Friedrichshain 10249 Hermann-Blankenstein-Straße 44",
    "name": "Toom Baumarkt Berlin-Friedrichshain"
  },
  {
    "shortName": "Hellweg",
    "company": "",
    "street1": "Ellen-Epstein-Straße 1",
    "street2": "",
    "zip": 10559,
    "city": "Berlin-Tiergarten ",
    "country": "Deutschland",
    "tel": "+49 30 39063330",
    "telBranch": "+49 30 39063330",
    "mail": "",
    "web": "",
    "oez": "",
    "lat": 52.53627,
    "lng": 13.35478,
    "key": "Hellweg Berlin-Tiergarten  10559 Ellen-Epstein-Straße 1",
    "name": "Hellweg Berlin-Tiergarten "
  },
  {
    "shortName": "BAUHAUS",
    "company": "",
    "street1": "Kurfürstendamm 129 A",
    "street2": "",
    "zip": 10711,
    "city": "Berlin-Kurfürstendamm",
    "country": "Deutschland",
    "tel": "",
    "telBranch": "+49 030 89046800",
    "mail": "",
    "web": "",
    "oez": "",
    "lat": 52.49625,
    "lng": 13.28866,
    "key": "BAUHAUS Berlin-Kurfürstendamm 10711 Kurfürstendamm 129 A",
    "name": "BAUHAUS Berlin-Kurfürstendamm"
  },
  {
    "shortName": "Hellweg",
    "company": "",
    "street1": "Yorckstraße 38-39",
    "street2": "",
    "zip": 10965,
    "city": "Berlin-Kreuzberg ",
    "country": "Deutschland",
    "tel": "+49 30 21459270",
    "telBranch": "+49 30 21459270",
    "mail": "",
    "web": "",
    "oez": "",
    "lat": 52.49287,
    "lng": 13.37063,
    "key": "Hellweg Berlin-Kreuzberg  10965 Yorckstraße 38-39",
    "name": "Hellweg Berlin-Kreuzberg "
  },
  {
    "shortName": "BAUHAUS",
    "company": "",
    "street1": "Hasenheide 108-114",
    "street2": "",
    "zip": 10967,
    "city": "Berlin-Neukölln",
    "country": "Deutschland",
    "tel": "",
    "telBranch": "+49 352 655580",
    "mail": "",
    "web": "",
    "oez": "",
    "lat": 52.48625,
    "lng": 13.42168,
    "key": "BAUHAUS Berlin-Neukölln 10967 Hasenheide 108-114",
    "name": "BAUHAUS Berlin-Neukölln"
  },
  {
    "shortName": "Hornbach",
    "company": "Etoy",
    "street1": "Route de I’Industrie 6",
    "street2": "",
    "zip": 1163,
    "city": "Etoy",
    "country": "Schweiz",
    "tel": "+41 21 6366-000",
    "telBranch": "+41 21 6366-000",
    "mail": "",
    "web": "",
    "oez": "",
    "lat": 46.47467,
    "lng": 6.41933,
    "key": "Hornbach Etoy 1163 Route de I’Industrie 6",
    "name": "Hornbach Etoy"
  },
  {
    "shortName": "BAUHAUS",
    "company": "",
    "street1": "Alboinstr. 18",
    "street2": "",
    "zip": 12103,
    "city": "Berlin-Schöneberg",
    "country": "Deutschland",
    "tel": "",
    "telBranch": "+49 030 7551560",
    "mail": "",
    "web": "",
    "oez": "",
    "lat": 52.46862,
    "lng": 13.36873,
    "key": "BAUHAUS Berlin-Schöneberg 12103 Alboinstr. 18",
    "name": "BAUHAUS Berlin-Schöneberg"
  },
  {
    "shortName": "Hellweg",
    "company": "",
    "street1": "Attilastraße 52",
    "street2": "",
    "zip": 12105,
    "city": "Berlin-Tempelhof ",
    "country": "Deutschland",
    "tel": "+49 30 47498980",
    "telBranch": "+49 30 47498980",
    "mail": "",
    "web": "",
    "oez": "",
    "lat": 52.44878,
    "lng": 13.36452,
    "key": "Hellweg Berlin-Tempelhof  12105 Attilastraße 52",
    "name": "Hellweg Berlin-Tempelhof "
  },
  {
    "shortName": "Hornbach",
    "company": "HORNBACH BM 609",
    "street1": "Grossbeerenstraße 133",
    "street2": "",
    "zip": 12197,
    "city": "Berlin-Mariendorf",
    "country": "Deutschland",
    "tel": "",
    "telBranch": "+49 030 7420650",
    "mail": "",
    "web": "",
    "oez": "",
    "lat": 52.43112,
    "lng": 13.37743,
    "key": "Hornbach Berlin-Mariendorf 12197 Grossbeerenstraße 133",
    "name": "Hornbach Berlin-Mariendorf"
  },
  {
    "shortName": "Hornbach",
    "company": "HORNBACH BM 684",
    "street1": "Stadtlauer Straße 37",
    "street2": "",
    "zip": 1220,
    "city": "Wien",
    "country": "Österreich",
    "tel": "",
    "telBranch": "+43 1 28594940",
    "mail": "",
    "web": "",
    "oez": "",
    "lat": 48.2302,
    "lng": 16.45584,
    "key": "Hornbach Wien 1220 Stadtlauer Straße 37",
    "name": "Hornbach Wien"
  },
  {
    "shortName": "BAUHAUS",
    "company": "",
    "street1": "Nahmitzer Damm 26",
    "street2": "",
    "zip": 12277,
    "city": "Berlin-Marienfelde",
    "country": "Deutschland",
    "tel": "",
    "telBranch": "+49 030 720050",
    "mail": "",
    "web": "",
    "oez": "",
    "lat": 52.40815,
    "lng": 13.37242,
    "key": "BAUHAUS Berlin-Marienfelde 12277 Nahmitzer Damm 26",
    "name": "BAUHAUS Berlin-Marienfelde"
  },
  {
    "shortName": "Hornbach",
    "company": "HORNBACH BM 616",
    "street1": "Gradestrasse 100",
    "street2": "",
    "zip": 12347,
    "city": "Berlin-Neukölln",
    "country": "Deutschland",
    "tel": "",
    "telBranch": "+49 030 6298790",
    "mail": "",
    "web": "",
    "oez": "",
    "lat": 52.45311,
    "lng": 13.42196,
    "key": "Hornbach Berlin-Neukölln 12347 Gradestrasse 100",
    "name": "Hornbach Berlin-Neukölln"
  },
  {
    "shortName": "BAUHAUS",
    "company": "",
    "street1": "Schnellerstr. 139",
    "street2": "",
    "zip": 12439,
    "city": "Berlin-Treptow",
    "country": "Deutschland",
    "tel": "",
    "telBranch": "+49 030 33977990",
    "mail": "",
    "web": "",
    "oez": "",
    "lat": 52.46138,
    "lng": 13.5036,
    "key": "BAUHAUS Berlin-Treptow 12439 Schnellerstr. 139",
    "name": "BAUHAUS Berlin-Treptow"
  },
  {
    "shortName": "Hornbach",
    "company": "HORNBACH BM 541",
    "street1": "Grünbergallee 279",
    "street2": "",
    "zip": 12526,
    "city": "Berlin-Bohnsdorf",
    "country": "Deutschland",
    "tel": "",
    "telBranch": "+49 030 6341760",
    "mail": "",
    "web": "",
    "oez": "",
    "lat": 52.39818,
    "lng": 13.54522,
    "key": "Hornbach Berlin-Bohnsdorf 12526 Grünbergallee 279",
    "name": "Hornbach Berlin-Bohnsdorf"
  },
  {
    "shortName": "Toom Baumarkt",
    "company": "",
    "street1": "Friedrichshagener Straße 38-42",
    "street2": "",
    "zip": 12555,
    "city": "Berlin-Koepenick",
    "country": "Deutschland",
    "tel": "+49 30 6507310",
    "telBranch": "+49 30 6507310",
    "mail": "",
    "web": "",
    "oez": "",
    "lat": 52.45222,
    "lng": 13.58674,
    "key": "Toom Baumarkt Berlin-Koepenick 12555 Friedrichshagener Straße 38-42",
    "name": "Toom Baumarkt Berlin-Koepenick"
  },
  {
    "shortName": "Hellweg",
    "company": "",
    "street1": "Salvador-Allende-Straße 115",
    "street2": "",
    "zip": 12559,
    "city": "Berlin-Köpenick ",
    "country": "Deutschland",
    "tel": "+49 30 43778910",
    "telBranch": "+49 30 43778910",
    "mail": "",
    "web": "",
    "oez": "",
    "lat": 52.45221,
    "lng": 13.59225,
    "key": "Hellweg Berlin-Köpenick  12559 Salvador-Allende-Straße 115",
    "name": "Hellweg Berlin-Köpenick "
  },
  {
    "shortName": "Hornbach",
    "company": "HORNBACH BM 570",
    "street1": "Maerkische Spitze 15",
    "street2": "",
    "zip": 12681,
    "city": "Berlin-Marzahn",
    "country": "Deutschland",
    "tel": "",
    "telBranch": "+49 030 546820",
    "mail": "",
    "web": "",
    "oez": "",
    "lat": 52.51813,
    "lng": 13.54332,
    "key": "Hornbach Berlin-Marzahn 12681 Maerkische Spitze 15",
    "name": "Hornbach Berlin-Marzahn"
  },
  {
    "shortName": "Hellweg",
    "company": "",
    "street1": "Alt Biesdorf 40",
    "street2": "",
    "zip": 12683,
    "city": "Berlin-Biesdorf ",
    "country": "Deutschland",
    "tel": "+49 30 5148890",
    "telBranch": "+49 30 5148890",
    "mail": "",
    "web": "",
    "oez": "",
    "lat": 52.50624,
    "lng": 13.56659,
    "key": "Hellweg Berlin-Biesdorf  12683 Alt Biesdorf 40",
    "name": "Hellweg Berlin-Biesdorf "
  },
  {
    "shortName": "Hellweg",
    "company": "",
    "street1": "Ferdinand-Schultze-Straße 106",
    "street2": "",
    "zip": 13055,
    "city": "Berlin-Hohenschönhausen ",
    "country": "Deutschland",
    "tel": "+49 30 9819630",
    "telBranch": "+49 30 9819630",
    "mail": "",
    "web": "",
    "oez": "",
    "lat": 52.54397,
    "lng": 13.50836,
    "key": "Hellweg Berlin-Hohenschönhausen  13055 Ferdinand-Schultze-Straße 106",
    "name": "Hellweg Berlin-Hohenschönhausen "
  },
  {
    "shortName": "Hellweg",
    "company": "",
    "street1": "Roelckestr.108",
    "street2": "",
    "zip": 13086,
    "city": "Berlin-Weißensee ",
    "country": "Deutschland",
    "tel": "+49 30 9204840",
    "telBranch": "+49 30 9204840",
    "mail": "",
    "web": "",
    "oez": "",
    "lat": 52.56213,
    "lng": 13.45736,
    "key": "Hellweg Berlin-Weißensee  13086 Roelckestr.108",
    "name": "Hellweg Berlin-Weißensee "
  },
  {
    "shortName": "Hornbach",
    "company": "HORNBACH BM 610",
    "street1": "Malchower Chaussee",
    "street2": "",
    "zip": 13088,
    "city": "Berlin-Weissensee",
    "country": "Deutschland",
    "tel": "",
    "telBranch": "+49 030 9240480",
    "mail": "",
    "web": "",
    "oez": "",
    "lat": 52.56595,
    "lng": 13.47151,
    "key": "Hornbach Berlin-Weissensee 13088 Malchower Chaussee",
    "name": "Hornbach Berlin-Weissensee"
  },
  {
    "shortName": "BAUHAUS",
    "company": "",
    "street1": "Schoenerlinder Str. 53",
    "street2": "",
    "zip": 13127,
    "city": "Berlin-Pankow",
    "country": "Deutschland",
    "tel": "",
    "telBranch": "+49 030 4759710",
    "mail": "",
    "web": "",
    "oez": "",
    "lat": 52.61502,
    "lng": 13.43324,
    "key": "BAUHAUS Berlin-Pankow 13127 Schoenerlinder Str. 53",
    "name": "BAUHAUS Berlin-Pankow"
  },
  {
    "shortName": "BAUHAUS",
    "company": "",
    "street1": "Kapweg 1 ",
    "street2": "",
    "zip": 13405,
    "city": "Berlin-Wedding",
    "country": "Deutschland",
    "tel": "",
    "telBranch": "+49 030 6411110",
    "mail": "",
    "web": "",
    "oez": "",
    "lat": 52.56226,
    "lng": 13.32849,
    "key": "BAUHAUS Berlin-Wedding 13405 Kapweg 1 ",
    "name": "BAUHAUS Berlin-Wedding"
  },
  {
    "shortName": "BAUHAUS",
    "company": "",
    "street1": "Brunsbuettler Damm 144",
    "street2": "",
    "zip": 13581,
    "city": "Berlin-Spandau",
    "country": "Deutschland",
    "tel": "",
    "telBranch": "+49 030 3300270",
    "mail": "",
    "web": "",
    "oez": "",
    "lat": 52.53412,
    "lng": 13.1759,
    "key": "BAUHAUS Berlin-Spandau 13581 Brunsbuettler Damm 144",
    "name": "BAUHAUS Berlin-Spandau"
  },
  {
    "shortName": "BAUHAUS",
    "company": "",
    "street1": "An den Freiheitswiesen 6",
    "street2": "",
    "zip": 13597,
    "city": "Berlin-Spandau",
    "country": "Deutschland",
    "tel": "",
    "telBranch": "+49 030 53005990",
    "mail": "",
    "web": "",
    "oez": "",
    "lat": 52.52932,
    "lng": 13.21874,
    "key": "BAUHAUS Berlin-Spandau 13597 An den Freiheitswiesen 6",
    "name": "BAUHAUS Berlin-Spandau"
  },
  {
    "shortName": "Hornbach",
    "company": "HORNBACH BM 566",
    "street1": "Am Friedrichspark 1",
    "street2": "",
    "zip": 14476,
    "city": "Potsdam-Marquardt",
    "country": "Deutschland",
    "tel": "",
    "telBranch": "+49 33208 620",
    "mail": "",
    "web": "",
    "oez": "",
    "lat": 52.47575,
    "lng": 12.95937,
    "key": "Hornbach Potsdam-Marquardt 14476 Am Friedrichspark 1",
    "name": "Hornbach Potsdam-Marquardt"
  },
  {
    "shortName": "Hellweg",
    "company": "",
    "street1": "Fritz-Zubeil-Straße 82",
    "street2": "",
    "zip": 14482,
    "city": "Potsdam ",
    "country": "Deutschland",
    "tel": "+49 331 748820",
    "telBranch": "+49 331 748820",
    "mail": "",
    "web": "",
    "oez": "",
    "lat": 52.37825,
    "lng": 13.10778,
    "key": "Hellweg Potsdam  14482 Fritz-Zubeil-Straße 82",
    "name": "Hellweg Potsdam "
  },
  {
    "shortName": "Toom Baumarkt",
    "company": "",
    "street1": "Großbeerenstraße 123-125",
    "street2": "",
    "zip": 14482,
    "city": "Potsdam-Babelsberg",
    "country": "Deutschland",
    "tel": "+49 331 743750",
    "telBranch": "+49 331 743750",
    "mail": "",
    "web": "",
    "oez": "",
    "lat": 52.38594,
    "lng": 13.10813,
    "key": "Toom Baumarkt Potsdam-Babelsberg 14482 Großbeerenstraße 123-125",
    "name": "Toom Baumarkt Potsdam-Babelsberg"
  },
  {
    "shortName": "Toom Baumarkt",
    "company": "",
    "street1": "Ruhlsdorfer Straße 95",
    "street2": "",
    "zip": 14532,
    "city": "Stahnsdorf",
    "country": "Deutschland",
    "tel": "+49 3329 6921210",
    "telBranch": "+49 3329 6921210",
    "mail": "",
    "web": "",
    "oez": "",
    "lat": 52.38283,
    "lng": 13.24329,
    "key": "Toom Baumarkt Stahnsdorf 14532 Ruhlsdorfer Straße 95",
    "name": "Toom Baumarkt Stahnsdorf"
  },
  {
    "shortName": "Hellweg",
    "company": "",
    "street1": "Hauffstraße 41",
    "street2": "",
    "zip": 14548,
    "city": "Schwielowsee ",
    "country": "Deutschland",
    "tel": "+49 3327 59860",
    "telBranch": "+49 3327 59860",
    "mail": "",
    "web": "",
    "oez": "",
    "lat": 52.36328,
    "lng": 12.96925,
    "key": "Hellweg Schwielowsee  14548 Hauffstraße 41",
    "name": "Hellweg Schwielowsee "
  },
  {
    "shortName": "Hellweg",
    "company": "",
    "street1": "Spandauer Straße 109",
    "street2": "",
    "zip": 14612,
    "city": "Falkensee ",
    "country": "Deutschland",
    "tel": "+49 3322 24500",
    "telBranch": "+49 3322 24500",
    "mail": "",
    "web": "",
    "oez": "",
    "lat": 52.56044,
    "lng": 13.12431,
    "key": "Hellweg Falkensee  14612 Spandauer Straße 109",
    "name": "Hellweg Falkensee "
  },
  {
    "shortName": "Toom Baumarkt",
    "company": "",
    "street1": "Milower Landstraße 6",
    "street2": "",
    "zip": 14712,
    "city": "Rathenow",
    "country": "Deutschland",
    "tel": "+49 3385 503541",
    "telBranch": "+49 3385 503541",
    "mail": "",
    "web": "",
    "oez": "",
    "lat": 52.59161,
    "lng": 12.33665,
    "key": "Toom Baumarkt Rathenow 14712 Milower Landstraße 6",
    "name": "Toom Baumarkt Rathenow"
  },
  {
    "shortName": "Hellweg",
    "company": "",
    "street1": "Upstallstraße 3",
    "street2": "",
    "zip": 14772,
    "city": "Brandenburg ",
    "country": "Deutschland",
    "tel": "+49 3381 72530",
    "telBranch": "+49 3381 72530",
    "mail": "",
    "web": "",
    "oez": "",
    "lat": 52.43116,
    "lng": 12.54988,
    "key": "Hellweg Brandenburg  14772 Upstallstraße 3",
    "name": "Hellweg Brandenburg "
  },
  {
    "shortName": "Toom Baumarkt",
    "company": "",
    "street1": "An der Bundesstraße 1",
    "street2": "",
    "zip": 14776,
    "city": "Brandenburg an der Havel",
    "country": "Deutschland",
    "tel": "+49 3381 26290",
    "telBranch": "+49 3381 26290",
    "mail": "",
    "web": "",
    "oez": "",
    "lat": 52.41042,
    "lng": 12.61161,
    "key": "Toom Baumarkt Brandenburg an der Havel 14776 An der Bundesstraße 1",
    "name": "Toom Baumarkt Brandenburg an der Havel"
  },
  {
    "shortName": "Toom Baumarkt",
    "company": "",
    "street1": "Kreisbahnplatz 1",
    "street2": "",
    "zip": 14913,
    "city": "Jüterbog",
    "country": "Deutschland",
    "tel": "+49 3372 42390",
    "telBranch": "+49 3372 42390",
    "mail": "",
    "web": "",
    "oez": "",
    "lat": 51.99803,
    "lng": 13.0819,
    "key": "Toom Baumarkt Jüterbog 14913 Kreisbahnplatz 1",
    "name": "Toom Baumarkt Jüterbog"
  },
  {
    "shortName": "Toom Baumarkt",
    "company": "",
    "street1": "Frankenfelder Chaussee 7",
    "street2": "",
    "zip": 14943,
    "city": "Luckenwalde",
    "country": "Deutschland",
    "tel": "+49 3371 6898510",
    "telBranch": "+49 3371 6898510",
    "mail": "",
    "web": "",
    "oez": "",
    "lat": 52.10173,
    "lng": 13.12538,
    "key": "Toom Baumarkt Luckenwalde 14943 Frankenfelder Chaussee 7",
    "name": "Toom Baumarkt Luckenwalde"
  },
  {
    "shortName": "Hornbach",
    "company": "HORNBACH  BM 600",
    "street1": "Parkallee 36",
    "street2": "",
    "zip": 14974,
    "city": "Berlin Ludwigsfelde",
    "country": "Deutschland",
    "tel": "",
    "telBranch": "+49 3378 20100",
    "mail": "",
    "web": "",
    "oez": "",
    "lat": 52.32045,
    "lng": 13.29136,
    "key": "Hornbach Berlin Ludwigsfelde 14974 Parkallee 36",
    "name": "Hornbach Berlin Ludwigsfelde"
  },
  {
    "shortName": "Toom Baumarkt",
    "company": "",
    "street1": "Nuhnenstraße 19",
    "street2": "",
    "zip": 15234,
    "city": "Frankfurt/Oder",
    "country": "Deutschland",
    "tel": "+49 335 40124910",
    "telBranch": "+49 335 40124910",
    "mail": "",
    "web": "",
    "oez": "",
    "lat": 52.34148,
    "lng": 14.50712,
    "key": "Toom Baumarkt Frankfurt/Oder 15234 Nuhnenstraße 19",
    "name": "Toom Baumarkt Frankfurt/Oder"
  },
  {
    "shortName": "Toom Baumarkt",
    "company": "",
    "street1": "Spitzkrugring 3",
    "street2": "",
    "zip": 15234,
    "city": "Frankfurt/Oder",
    "country": "Deutschland",
    "tel": "+49 335 6658710",
    "telBranch": "+49 335 6658710",
    "mail": "",
    "web": "",
    "oez": "",
    "lat": 52.36003,
    "lng": 14.52411,
    "key": "Toom Baumarkt Frankfurt/Oder 15234 Spitzkrugring 3",
    "name": "Toom Baumarkt Frankfurt/Oder"
  },
  {
    "shortName": "Toom Baumarkt",
    "company": "",
    "street1": "Diedersdorfer Straße 12",
    "street2": "",
    "zip": 15306,
    "city": "Seelow",
    "country": "Deutschland",
    "tel": "+49 3346 855810",
    "telBranch": "+49 3346 855810",
    "mail": "",
    "web": "",
    "oez": "",
    "lat": 52.5282884,
    "lng": 14.3664108,
    "key": "Toom Baumarkt Seelow 15306 Diedersdorfer Straße 12",
    "name": "Toom Baumarkt Seelow"
  },
  {
    "shortName": "Hellweg",
    "company": "",
    "street1": "Handwerkerstraße 34-40",
    "street2": "",
    "zip": 15366,
    "city": "Dahlwitz-Hoppegarten ",
    "country": "Deutschland",
    "tel": "+49 3342 35680",
    "telBranch": "+49 3342 35680",
    "mail": "",
    "web": "",
    "oez": "",
    "lat": 52.50389,
    "lng": 13.63298,
    "key": "Hellweg Dahlwitz-Hoppegarten  15366 Handwerkerstraße 34-40",
    "name": "Hellweg Dahlwitz-Hoppegarten "
  },
  {
    "shortName": "Hornbach",
    "company": "HORNBACH BM 562",
    "street1": "Frankfurter Chaussee 51",
    "street2": "",
    "zip": 15370,
    "city": "Fredersdorf-Vogelsdorf",
    "country": "Deutschland",
    "tel": "",
    "telBranch": "+49 33439 6890",
    "mail": "",
    "web": "",
    "oez": "",
    "lat": 52.497,
    "lng": 13.74691,
    "key": "Hornbach Fredersdorf-Vogelsdorf 15370 Frankfurter Chaussee 51",
    "name": "Hornbach Fredersdorf-Vogelsdorf"
  },
  {
    "shortName": "Toom Baumarkt",
    "company": "",
    "street1": "Alte Langenwahler Chaussee 11",
    "street2": "",
    "zip": 15517,
    "city": "Fürstenwalde/Spree",
    "country": "Deutschland",
    "tel": "+49 3361 36090",
    "telBranch": "+49 3361 36090",
    "mail": "",
    "web": "",
    "oez": "",
    "lat": 52.33624,
    "lng": 14.08133,
    "key": "Toom Baumarkt Fürstenwalde/Spree 15517 Alte Langenwahler Chaussee 11",
    "name": "Toom Baumarkt Fürstenwalde/Spree"
  },
  {
    "shortName": "Toom Baumarkt",
    "company": "",
    "street1": "Rebstockstraße 2",
    "street2": "",
    "zip": 15517,
    "city": "Fürstenwalde/Spree",
    "country": "Deutschland",
    "tel": "+49 3361 368510",
    "telBranch": "+49 3361 368510",
    "mail": "",
    "web": "",
    "oez": "",
    "lat": 52.37955,
    "lng": 14.06521,
    "key": "Toom Baumarkt Fürstenwalde/Spree 15517 Rebstockstraße 2",
    "name": "Toom Baumarkt Fürstenwalde/Spree"
  },
  {
    "shortName": "BAUHAUS",
    "company": "",
    "street1": "Chausseestraße 1",
    "street2": "",
    "zip": 15745,
    "city": "Wildau",
    "country": "Deutschland",
    "tel": "",
    "telBranch": "+49 3375 52480",
    "mail": "",
    "web": "",
    "oez": "",
    "lat": 52.31309,
    "lng": 13.60757,
    "key": "BAUHAUS Wildau 15745 Chausseestraße 1",
    "name": "BAUHAUS Wildau"
  },
  {
    "shortName": "BAUHAUS",
    "company": "",
    "street1": "Am Lückefeld 87-91",
    "street2": "",
    "zip": 15831,
    "city": "Mahlow",
    "country": "Deutschland",
    "tel": "",
    "telBranch": "+49 352 655580",
    "mail": "",
    "web": "",
    "oez": "",
    "lat": 52.35824,
    "lng": 13.43661,
    "key": "BAUHAUS Mahlow 15831 Am Lückefeld 87-91",
    "name": "BAUHAUS Mahlow"
  },
  {
    "shortName": "Toom Baumarkt",
    "company": "",
    "street1": "Am Wiesengrund 1",
    "street2": "",
    "zip": 15890,
    "city": "Eisenhüttenstadt",
    "country": "Deutschland",
    "tel": "+49 3364 7695110",
    "telBranch": "+49 3364 7695110",
    "mail": "",
    "web": "",
    "oez": "",
    "lat": 52.12895,
    "lng": 14.6368,
    "key": "Toom Baumarkt Eisenhüttenstadt 15890 Am Wiesengrund 1",
    "name": "Toom Baumarkt Eisenhüttenstadt"
  },
  {
    "shortName": "Toom Baumarkt",
    "company": "",
    "street1": "Postbautenstraße 20",
    "street2": "",
    "zip": 15907,
    "city": "Lübben",
    "country": "Deutschland",
    "tel": "+49 3546 2786210",
    "telBranch": "+49 3546 2786210",
    "mail": "",
    "web": "",
    "oez": "",
    "lat": 51.93949,
    "lng": 13.9231,
    "key": "Toom Baumarkt Lübben 15907 Postbautenstraße 20",
    "name": "Toom Baumarkt Lübben"
  },
  {
    "shortName": "Toom Baumarkt",
    "company": "",
    "street1": "Eberswalder Straße 4",
    "street2": "",
    "zip": 16227,
    "city": "Eberswalde",
    "country": "Deutschland",
    "tel": "+49 3334 279410",
    "telBranch": "+49 3334 279410",
    "mail": "",
    "web": "",
    "oez": "",
    "lat": 52.83974,
    "lng": 13.77047,
    "key": "Toom Baumarkt Eberswalde 16227 Eberswalder Straße 4",
    "name": "Toom Baumarkt Eberswalde"
  },
  {
    "shortName": "Toom Baumarkt",
    "company": "",
    "street1": "Schwanebecker Chaussee 29",
    "street2": "",
    "zip": 16321,
    "city": "Bernau",
    "country": "Deutschland",
    "tel": "+49 3338 608410",
    "telBranch": "+49 3338 608410",
    "mail": "",
    "web": "",
    "oez": "",
    "lat": 52.6598995,
    "lng": 13.5759398,
    "key": "Toom Baumarkt Bernau 16321 Schwanebecker Chaussee 29",
    "name": "Toom Baumarkt Bernau"
  },
  {
    "shortName": "Hellweg",
    "company": "",
    "street1": "Möbel-Hübner-Straße 7",
    "street2": "",
    "zip": 16356,
    "city": "Ahrensfelde ",
    "country": "Deutschland",
    "tel": "+49 33394 5290",
    "telBranch": "+49 33394 5290",
    "mail": "",
    "web": "",
    "oez": "",
    "lat": 52.59812,
    "lng": 13.60096,
    "key": "Hellweg Ahrensfelde  16356 Möbel-Hübner-Straße 7",
    "name": "Hellweg Ahrensfelde "
  },
  {
    "shortName": "BAUHAUS",
    "company": "",
    "street1": "Haupstr.211",
    "street2": "",
    "zip": 16547,
    "city": "Birkenwerder",
    "country": "Deutschland",
    "tel": "",
    "telBranch": "+49 3303 52060",
    "mail": "",
    "web": "",
    "oez": "",
    "lat": 52.70412,
    "lng": 13.26907,
    "key": "BAUHAUS Birkenwerder 16547 Haupstr.211",
    "name": "BAUHAUS Birkenwerder"
  },
  {
    "shortName": "Hornbach",
    "company": "HORNBACH BM 588",
    "street1": "Parkallee businesspark",
    "street2": "",
    "zip": 16727,
    "city": "Berlin-Velten",
    "country": "Deutschland",
    "tel": "",
    "telBranch": "+49 3304 20270",
    "mail": "",
    "web": "",
    "oez": "",
    "lat": 52.66558,
    "lng": 13.20805,
    "key": "Hornbach Berlin-Velten 16727 Parkallee businesspark",
    "name": "Hornbach Berlin-Velten"
  },
  {
    "shortName": "Hellweg",
    "company": "",
    "street1": "Veltener Straße",
    "street2": "",
    "zip": 16761,
    "city": "Hennigsdorf ",
    "country": "Deutschland",
    "tel": "+49 3302 87920",
    "telBranch": "+49 3302 87920",
    "mail": "",
    "web": "",
    "oez": "",
    "lat": 52.65993,
    "lng": 13.20675,
    "key": "Hellweg Hennigsdorf  16761 Veltener Straße",
    "name": "Hellweg Hennigsdorf "
  },
  {
    "shortName": "Toom Baumarkt",
    "company": "",
    "street1": "Hans-Günter-Bock-Straße 4",
    "street2": "",
    "zip": 16798,
    "city": "Fürstenberg/Havel",
    "country": "Deutschland",
    "tel": "+49 33093 39254",
    "telBranch": "+49 33093 39254",
    "mail": "",
    "web": "",
    "oez": "",
    "lat": 53.17126,
    "lng": 13.13909,
    "key": "Toom Baumarkt Fürstenberg/Havel 16798 Hans-Günter-Bock-Straße 4",
    "name": "Toom Baumarkt Fürstenberg/Havel"
  },
  {
    "shortName": "Toom Baumarkt",
    "company": "",
    "street1": "Werdohler Straße 3",
    "street2": "",
    "zip": 17153,
    "city": "Stavenhagen",
    "country": "Deutschland",
    "tel": "+49 39954 27210",
    "telBranch": "+49 39954 27210",
    "mail": "",
    "web": "",
    "oez": "",
    "lat": 53.68748,
    "lng": 12.91591,
    "key": "Toom Baumarkt Stavenhagen 17153 Werdohler Straße 3",
    "name": "Toom Baumarkt Stavenhagen"
  },
  {
    "shortName": "Toom Baumarkt",
    "company": "",
    "street1": "Seelübber Weg 3",
    "street2": "",
    "zip": 17291,
    "city": "Prenzlau",
    "country": "Deutschland",
    "tel": "+49 3984 8327210",
    "telBranch": "+49 3984 8327210",
    "mail": "",
    "web": "",
    "oez": "",
    "lat": 53.30511,
    "lng": 13.87759,
    "key": "Toom Baumarkt Prenzlau 17291 Seelübber Weg 3",
    "name": "Toom Baumarkt Prenzlau"
  },
  {
    "shortName": "Toom Baumarkt",
    "company": "",
    "street1": "Torgelower Straße 21",
    "street2": "",
    "zip": 17309,
    "city": "Pasewalk",
    "country": "Deutschland",
    "tel": "+49 3973 43770",
    "telBranch": "+49 3973 43770",
    "mail": "",
    "web": "",
    "oez": "",
    "lat": 53.51225,
    "lng": 14.0111,
    "key": "Toom Baumarkt Pasewalk 17309 Torgelower Straße 21",
    "name": "Toom Baumarkt Pasewalk"
  },
  {
    "shortName": "Toom Baumarkt",
    "company": "",
    "street1": "Friedländer Landstraße 17",
    "street2": "",
    "zip": 17389,
    "city": "Anklam",
    "country": "Deutschland",
    "tel": "+49 3971 29330",
    "telBranch": "+49 3971 29330",
    "mail": "",
    "web": "",
    "oez": "",
    "lat": 53.84061,
    "lng": 13.68247,
    "key": "Toom Baumarkt Anklam 17389 Friedländer Landstraße 17",
    "name": "Toom Baumarkt Anklam"
  },
  {
    "shortName": "Toom Baumarkt",
    "company": "",
    "street1": "Guetzkower Landstraße 13-16",
    "street2": "",
    "zip": 17489,
    "city": "Greifswald",
    "country": "Deutschland",
    "tel": "+49 3834 589610",
    "telBranch": "+49 3834 589610",
    "mail": "",
    "web": "",
    "oez": "",
    "lat": 54.08105,
    "lng": 13.3802,
    "key": "Toom Baumarkt Greifswald 17489 Guetzkower Landstraße 13-16",
    "name": "Toom Baumarkt Greifswald"
  },
  {
    "shortName": "Toom Baumarkt",
    "company": "",
    "street1": "Marktflecken 1",
    "street2": "",
    "zip": 17498,
    "city": "Neuenkirchen",
    "country": "Deutschland",
    "tel": "+49 3834 7761210",
    "telBranch": "+49 3834 7761210",
    "mail": "",
    "web": "",
    "oez": "",
    "lat": 54.11963,
    "lng": 13.36155,
    "key": "Toom Baumarkt Neuenkirchen 17498 Marktflecken 1",
    "name": "Toom Baumarkt Neuenkirchen"
  },
  {
    "shortName": "BAUHAUS",
    "company": "",
    "street1": "An den Griebensoellen 1",
    "street2": "",
    "zip": 18069,
    "city": "Rostock",
    "country": "Deutschland",
    "tel": "",
    "telBranch": "+49 381 64150",
    "mail": "",
    "web": "",
    "oez": "",
    "lat": 54.10669,
    "lng": 12.05883,
    "key": "BAUHAUS Rostock 18069 An den Griebensoellen 1",
    "name": "BAUHAUS Rostock"
  },
  {
    "shortName": "Toom Baumarkt",
    "company": "",
    "street1": "Trelleburger Straße 7",
    "street2": "",
    "zip": 18107,
    "city": "Rostock",
    "country": "Deutschland",
    "tel": "+49 381 776500",
    "telBranch": "+49 381 776500",
    "mail": "",
    "web": "",
    "oez": "",
    "lat": 54.13461,
    "lng": 12.06179,
    "key": "Toom Baumarkt Rostock 18107 Trelleburger Straße 7",
    "name": "Toom Baumarkt Rostock"
  },
  {
    "shortName": "Toom Baumarkt",
    "company": "",
    "street1": "Hansestraße 45",
    "street2": "",
    "zip": 18182,
    "city": "Rostock-Bentwisch",
    "country": "Deutschland",
    "tel": "+49 381 60069110",
    "telBranch": "+49 381 60069110",
    "mail": "",
    "web": "",
    "oez": "",
    "lat": 54.11719,
    "lng": 12.19454,
    "key": "Toom Baumarkt Rostock-Bentwisch 18182 Hansestraße 45",
    "name": "Toom Baumarkt Rostock-Bentwisch"
  },
  {
    "shortName": "Toom Baumarkt",
    "company": "",
    "street1": "Körkwitzer Weg 40",
    "street2": "",
    "zip": 18311,
    "city": "Ribnitz-Damgarten",
    "country": "Deutschland",
    "tel": "+49 3821 390210",
    "telBranch": "+49 3821 390210",
    "mail": "",
    "web": "",
    "oez": "",
    "lat": 54.2468602,
    "lng": 12.4098522,
    "key": "Toom Baumarkt Ribnitz-Damgarten 18311 Körkwitzer Weg 40",
    "name": "Toom Baumarkt Ribnitz-Damgarten"
  },
  {
    "shortName": "BAUHAUS",
    "company": "",
    "street1": "Gustower Weg 1",
    "street2": "",
    "zip": 18439,
    "city": "Stralsund",
    "country": "Deutschland",
    "tel": "",
    "telBranch": "+49 3831 27590",
    "mail": "",
    "web": "",
    "oez": "",
    "lat": 54.26974,
    "lng": 13.11315,
    "key": "BAUHAUS Stralsund 18439 Gustower Weg 1",
    "name": "BAUHAUS Stralsund"
  },
  {
    "shortName": "Hornbach",
    "company": "Villeneuve",
    "street1": "Chemin du Pré-Neuf",
    "street2": "",
    "zip": 1844,
    "city": "Villeneuve",
    "country": "Schweiz",
    "tel": "+41 21 9674-000",
    "telBranch": "+41 21 9674-000",
    "mail": "",
    "web": "",
    "oez": "",
    "lat": 46.38779,
    "lng": 6.93409,
    "key": "Hornbach Villeneuve 1844 Chemin du Pré-Neuf",
    "name": "Hornbach Villeneuve"
  },
  {
    "shortName": "Toom Baumarkt",
    "company": "",
    "street1": "Ringstraße 140",
    "street2": "",
    "zip": 18528,
    "city": "Bergen auf Rügen",
    "country": "Deutschland",
    "tel": "+49 3838 808910",
    "telBranch": "+49 3838 808910",
    "mail": "",
    "web": "",
    "oez": "",
    "lat": 54.42385,
    "lng": 13.42083,
    "key": "Toom Baumarkt Bergen auf Rügen 18528 Ringstraße 140",
    "name": "Toom Baumarkt Bergen auf Rügen"
  },
  {
    "shortName": "Toom Baumarkt",
    "company": "",
    "street1": "Medeweger Straße 10",
    "street2": "",
    "zip": 19057,
    "city": "Schwerin",
    "country": "Deutschland",
    "tel": "+49 385 485130",
    "telBranch": "+49 385 485130",
    "mail": "",
    "web": "",
    "oez": "",
    "lat": 53.65535,
    "lng": 11.37261,
    "key": "Toom Baumarkt Schwerin 19057 Medeweger Straße 10",
    "name": "Toom Baumarkt Schwerin"
  },
  {
    "shortName": "BAUHAUS",
    "company": "",
    "street1": "Graf-York-Straße 1",
    "street2": "",
    "zip": 19061,
    "city": "Schwerin",
    "country": "Deutschland",
    "tel": "",
    "telBranch": "+49 385 7582110",
    "mail": "",
    "web": "",
    "oez": "",
    "lat": 53.59656,
    "lng": 11.433,
    "key": "BAUHAUS Schwerin 19061 Graf-York-Straße 1",
    "name": "BAUHAUS Schwerin"
  },
  {
    "shortName": "Hornbach",
    "company": "Riddes",
    "street1": "Les Babioux 1",
    "street2": "",
    "zip": 1908,
    "city": "Riddes",
    "country": "Schweiz",
    "tel": "+41 27 7208-000",
    "telBranch": "+41 27 7208-000",
    "mail": "",
    "web": "",
    "oez": "",
    "lat": 46.16618,
    "lng": 7.21346,
    "key": "Hornbach Riddes 1908 Les Babioux 1",
    "name": "Hornbach Riddes"
  },
  {
    "shortName": "Toom Baumarkt",
    "company": "",
    "street1": "Wöbbeliner Straße 94",
    "street2": "",
    "zip": 19288,
    "city": "Ludwigslust ",
    "country": "Deutschland",
    "tel": "+49 3874 423700",
    "telBranch": "+49 3874 423700",
    "mail": "",
    "web": "",
    "oez": "",
    "lat": 53.34943,
    "lng": 11.48945,
    "key": "Toom Baumarkt Ludwigslust  19288 Wöbbeliner Straße 94",
    "name": "Toom Baumarkt Ludwigslust "
  },
  {
    "shortName": "Toom Baumarkt",
    "company": "",
    "street1": "Lenzener Chaussee 21",
    "street2": "",
    "zip": 19322,
    "city": "Wittenberge",
    "country": "Deutschland",
    "tel": "+49 3877 563430",
    "telBranch": "+49 3877 563430",
    "mail": "",
    "web": "",
    "oez": "",
    "lat": 53.00426,
    "lng": 11.71978,
    "key": "Toom Baumarkt Wittenberge 19322 Lenzener Chaussee 21",
    "name": "Toom Baumarkt Wittenberge"
  },
  {
    "shortName": "BAUHAUS",
    "company": "",
    "street1": "Curslacker Neuer Deich 16-20",
    "street2": "",
    "zip": 21029,
    "city": "Hamburg-Bergedorf",
    "country": "Deutschland",
    "tel": "",
    "telBranch": "+49 353 655580",
    "mail": "",
    "web": "",
    "oez": "",
    "lat": 53.48322,
    "lng": 10.20866,
    "key": "BAUHAUS Hamburg-Bergedorf 21029 Curslacker Neuer Deich 16-20",
    "name": "BAUHAUS Hamburg-Bergedorf"
  },
  {
    "shortName": "BAUHAUS",
    "company": "",
    "street1": "Schlachthofstrasse 1",
    "street2": "",
    "zip": 21079,
    "city": "Hamburg-Harburg",
    "country": "Deutschland",
    "tel": "",
    "telBranch": "+49 40 78876260",
    "mail": "",
    "web": "",
    "oez": "",
    "lat": 53.45889,
    "lng": 9.99334,
    "key": "BAUHAUS Hamburg-Harburg 21079 Schlachthofstrasse 1",
    "name": "BAUHAUS Hamburg-Harburg"
  },
  {
    "shortName": "BAUHAUS",
    "company": "",
    "street1": "Auf den Blöcken 1",
    "street2": "",
    "zip": 21337,
    "city": "Lüneburg",
    "country": "Deutschland",
    "tel": "",
    "telBranch": "+49 4131 298880",
    "mail": "",
    "web": "",
    "oez": "",
    "lat": 53.23886,
    "lng": 10.4631,
    "key": "BAUHAUS Lüneburg 21337 Auf den Blöcken 1",
    "name": "BAUHAUS Lüneburg"
  },
  {
    "shortName": "Hornbach",
    "company": "HORNBACH BM 634",
    "street1": "An der Keulahütte 1",
    "street2": "",
    "zip": 21339,
    "city": "Lueneburg",
    "country": "Deutschland",
    "tel": "",
    "telBranch": "+49 4131 263450",
    "mail": "",
    "web": "",
    "oez": "",
    "lat": 53.26143,
    "lng": 10.41405,
    "key": "Hornbach Lueneburg 21339 An der Keulahütte 1",
    "name": "Hornbach Lueneburg"
  },
  {
    "shortName": "Toom Baumarkt",
    "company": "",
    "street1": "Düneberger Straße 112-114",
    "street2": "",
    "zip": 21502,
    "city": "Geesthacht",
    "country": "Deutschland",
    "tel": "+49 4152 877310",
    "telBranch": "+49 4152 877310",
    "mail": "",
    "web": "",
    "oez": "",
    "lat": 53.4351483,
    "lng": 10.3510441,
    "key": "Toom Baumarkt Geesthacht 21502 Düneberger Straße 112-114",
    "name": "Toom Baumarkt Geesthacht"
  },
  {
    "shortName": "Toom Baumarkt",
    "company": "",
    "street1": "Konrad-Adenauer-Allee 1",
    "street2": "",
    "zip": 21614,
    "city": "Buxtehude",
    "country": "Deutschland",
    "tel": "+49 4161 64230",
    "telBranch": "+49 4161 64230",
    "mail": "",
    "web": "",
    "oez": "",
    "lat": 53.4726,
    "lng": 9.71491,
    "key": "Toom Baumarkt Buxtehude 21614 Konrad-Adenauer-Allee 1",
    "name": "Toom Baumarkt Buxtehude"
  },
  {
    "shortName": "Toom Baumarkt",
    "company": "",
    "street1": "Ostmoorweg 4",
    "street2": "",
    "zip": 21614,
    "city": "Buxtehude",
    "country": "Deutschland",
    "tel": "+49 4161 74610",
    "telBranch": "+49 4161 74610",
    "mail": "",
    "web": "",
    "oez": "",
    "lat": 53.46703,
    "lng": 9.71909,
    "key": "Toom Baumarkt Buxtehude 21614 Ostmoorweg 4",
    "name": "Toom Baumarkt Buxtehude"
  },
  {
    "shortName": "Toom Baumarkt",
    "company": "",
    "street1": "Freiburger Straße 64",
    "street2": "",
    "zip": 21682,
    "city": "Stade-Schölisch",
    "country": "Deutschland",
    "tel": "",
    "telBranch": "+49 221 46706710",
    "mail": "",
    "web": "",
    "oez": "",
    "lat": 53.6104623,
    "lng": 9.4778875,
    "key": "Toom Baumarkt Stade-Schölisch 21682 Freiburger Straße 64",
    "name": "Toom Baumarkt Stade-Schölisch"
  },
  {
    "shortName": "Toom Baumarkt",
    "company": "",
    "street1": "Am Steinkamp 4",
    "street2": "",
    "zip": 21684,
    "city": "Stade-Wiepenkathen",
    "country": "Deutschland",
    "tel": "+49 4141 7763410",
    "telBranch": "+49 4141 7763410",
    "mail": "",
    "web": "",
    "oez": "",
    "lat": 53.59317,
    "lng": 9.42536,
    "key": "Toom Baumarkt Stade-Wiepenkathen 21684 Am Steinkamp 4",
    "name": "Toom Baumarkt Stade-Wiepenkathen"
  },
  {
    "shortName": "Hornbach",
    "company": "HORNBACH BM 683",
    "street1": "Brünnerstraße ",
    "street2": "",
    "zip": 2201,
    "city": "Gerasdorf",
    "country": "Österreich",
    "tel": "",
    "telBranch": "+43 2246 205640",
    "mail": "",
    "web": "",
    "oez": "",
    "lat": 48.32884,
    "lng": 16.45141,
    "key": "Hornbach Gerasdorf 2201 Brünnerstraße ",
    "name": "Hornbach Gerasdorf"
  },
  {
    "shortName": "BAUHAUS",
    "company": "",
    "street1": "Wandsbeker Zollstraße 95",
    "street2": "",
    "zip": 22041,
    "city": "Hamburg-Wandsbek",
    "country": "Deutschland",
    "tel": "",
    "telBranch": "+49 40 46069590",
    "mail": "",
    "web": "",
    "oez": "",
    "lat": 53.57648,
    "lng": 10.0813,
    "key": "BAUHAUS Hamburg-Wandsbek 22041 Wandsbeker Zollstraße 95",
    "name": "BAUHAUS Hamburg-Wandsbek"
  },
  {
    "shortName": "Toom Baumarkt",
    "company": "",
    "street1": "Am Stadtrand 31-33",
    "street2": "",
    "zip": 22047,
    "city": "Hamburg- Wandsbek",
    "country": "Deutschland",
    "tel": "+49 40 6969710",
    "telBranch": "+49 40 6969710",
    "mail": "",
    "web": "",
    "oez": "",
    "lat": 53.58735,
    "lng": 10.09915,
    "key": "Toom Baumarkt Hamburg- Wandsbek 22047 Am Stadtrand 31-33",
    "name": "Toom Baumarkt Hamburg- Wandsbek"
  },
  {
    "shortName": "BAUHAUS",
    "company": "",
    "street1": "Unterer Landweg 77",
    "street2": "",
    "zip": 22113,
    "city": "Hamburg-Moorfleet",
    "country": "Deutschland",
    "tel": "",
    "telBranch": "+49 40 8197390",
    "mail": "",
    "web": "",
    "oez": "",
    "lat": 53.5108,
    "lng": 10.09397,
    "key": "BAUHAUS Hamburg-Moorfleet 22113 Unterer Landweg 77",
    "name": "BAUHAUS Hamburg-Moorfleet"
  },
  {
    "shortName": "BAUHAUS",
    "company": "",
    "street1": "Bramfelder Chaussee 136",
    "street2": "",
    "zip": 22177,
    "city": "Hamburg-Bramfeld",
    "country": "Deutschland",
    "tel": "",
    "telBranch": "+49 40 64225700",
    "mail": "",
    "web": "",
    "oez": "",
    "lat": 53.60355,
    "lng": 10.07207,
    "key": "BAUHAUS Hamburg-Bramfeld 22177 Bramfelder Chaussee 136",
    "name": "BAUHAUS Hamburg-Bramfeld"
  },
  {
    "shortName": "BAUHAUS",
    "company": "",
    "street1": "Tarpen 19",
    "street2": "",
    "zip": 22419,
    "city": "Hamburg-Langenhorn",
    "country": "Deutschland",
    "tel": "",
    "telBranch": "+49 40 68860350",
    "mail": "",
    "web": "",
    "oez": "",
    "lat": 53.66473,
    "lng": 9.99449,
    "key": "BAUHAUS Hamburg-Langenhorn 22419 Tarpen 19",
    "name": "BAUHAUS Hamburg-Langenhorn"
  },
  {
    "shortName": "Hornbach",
    "company": "HORNBACH BM 624",
    "street1": "Holsteiner Chaussee 49",
    "street2": "",
    "zip": 22523,
    "city": "Hamburg-Eidelstedt",
    "country": "Deutschland",
    "tel": "",
    "telBranch": "+49 40 25330180",
    "mail": "",
    "web": "",
    "oez": "",
    "lat": 53.61428,
    "lng": 9.90422,
    "key": "Hornbach Hamburg-Eidelstedt 22523 Holsteiner Chaussee 49",
    "name": "Hornbach Hamburg-Eidelstedt"
  },
  {
    "shortName": "BAUHAUS",
    "company": "",
    "street1": "Kieler Straße 499",
    "street2": "",
    "zip": 22525,
    "city": "Hamburg-Stellingen",
    "country": "Deutschland",
    "tel": "",
    "telBranch": "+49 40 52108980",
    "mail": "",
    "web": "",
    "oez": "",
    "lat": 53.59636,
    "lng": 9.92195,
    "key": "BAUHAUS Hamburg-Stellingen 22525 Kieler Straße 499",
    "name": "BAUHAUS Hamburg-Stellingen"
  },
  {
    "shortName": "BAUHAUS",
    "company": "",
    "street1": "Alte Kollaustraße 44/46",
    "street2": "",
    "zip": 22529,
    "city": "Hamburg-Lokstedt",
    "country": "Deutschland",
    "tel": "",
    "telBranch": "+49 353 655580",
    "mail": "",
    "web": "",
    "oez": "",
    "lat": 53.60403,
    "lng": 9.96312,
    "key": "BAUHAUS Hamburg-Lokstedt 22529 Alte Kollaustraße 44/46",
    "name": "BAUHAUS Hamburg-Lokstedt"
  },
  {
    "shortName": "BAUHAUS",
    "company": "",
    "street1": "Rugenbarg 252",
    "street2": "",
    "zip": 22549,
    "city": "Hamburg-Lurup",
    "country": "Deutschland",
    "tel": "",
    "telBranch": "+49 40 3327000",
    "mail": "",
    "web": "",
    "oez": "",
    "lat": 53.58535,
    "lng": 9.87247,
    "key": "BAUHAUS Hamburg-Lurup 22549 Rugenbarg 252",
    "name": "BAUHAUS Hamburg-Lurup"
  },
  {
    "shortName": "BAUHAUS",
    "company": "",
    "street1": "Rahlstedter Strasse 2",
    "street2": "",
    "zip": 22885,
    "city": "Barsbüttel",
    "country": "Deutschland",
    "tel": "",
    "telBranch": "+49 40 66907670",
    "mail": "",
    "web": "",
    "oez": "",
    "lat": 53.57599,
    "lng": 10.19489,
    "key": "BAUHAUS Barsbüttel 22885 Rahlstedter Strasse 2",
    "name": "BAUHAUS Barsbüttel"
  },
  {
    "shortName": "Toom Baumarkt",
    "company": "",
    "street1": "Beimoorweg 17b",
    "street2": "",
    "zip": 22926,
    "city": "Ahrensburg",
    "country": "Deutschland",
    "tel": "+49 4102 7775810",
    "telBranch": "+49 4102 7775810",
    "mail": "",
    "web": "",
    "oez": "",
    "lat": 53.68065,
    "lng": 10.25175,
    "key": "Toom Baumarkt Ahrensburg 22926 Beimoorweg 17b",
    "name": "Toom Baumarkt Ahrensburg"
  },
  {
    "shortName": "Hornbach",
    "company": "HORNBACH BM 680",
    "street1": "Johann von Steinböck Straße 7a ",
    "street2": "",
    "zip": 2345,
    "city": "Brunn am Gebirge",
    "country": "Österreich",
    "tel": "",
    "telBranch": "+43 2236 3060",
    "mail": "",
    "web": "",
    "oez": "",
    "lat": 48.10781,
    "lng": 16.31254,
    "key": "Hornbach Brunn am Gebirge 2345 Johann von Steinböck Straße 7a ",
    "name": "Hornbach Brunn am Gebirge"
  },
  {
    "shortName": "BAUHAUS",
    "company": "",
    "street1": "Bei der Lohmühle 102",
    "street2": "",
    "zip": 23554,
    "city": "Lübeck",
    "country": "Deutschland",
    "tel": "",
    "telBranch": "+49 451 484420",
    "mail": "",
    "web": "",
    "oez": "",
    "lat": 53.88002,
    "lng": 10.67671,
    "key": "BAUHAUS Lübeck 23554 Bei der Lohmühle 102",
    "name": "BAUHAUS Lübeck"
  },
  {
    "shortName": "BAUHAUS",
    "company": "",
    "street1": "Lohgerber Straße 3",
    "street2": "",
    "zip": 23556,
    "city": "Lübeck-Moisling",
    "country": "Deutschland",
    "tel": "",
    "telBranch": "+49 451 4077400",
    "mail": "",
    "web": "",
    "oez": "",
    "lat": 53.86151,
    "lng": 10.62874,
    "key": "BAUHAUS Lübeck-Moisling 23556 Lohgerber Straße 3",
    "name": "BAUHAUS Lübeck-Moisling"
  },
  {
    "shortName": "Hornbach",
    "company": "HORNBACH BM 630",
    "street1": "Dänischburger Landstrasse 79-81",
    "street2": "",
    "zip": 23569,
    "city": "Lübeck",
    "country": "Deutschland",
    "tel": "",
    "telBranch": "+49 353 655580",
    "mail": "",
    "web": "",
    "oez": "",
    "lat": 53.91581,
    "lng": 10.73165,
    "key": "Hornbach Lübeck 23569 Dänischburger Landstrasse 79-81",
    "name": "Hornbach Lübeck"
  },
  {
    "shortName": "Toom Baumarkt",
    "company": "",
    "street1": "Neukoppel 1",
    "street2": "",
    "zip": 23730,
    "city": "Neustadt in Holstein",
    "country": "Deutschland",
    "tel": "+49 4561 714110",
    "telBranch": "+49 4561 714110",
    "mail": "",
    "web": "",
    "oez": "",
    "lat": 54.09453,
    "lng": 10.78609,
    "key": "Toom Baumarkt Neustadt in Holstein 23730 Neukoppel 1",
    "name": "Toom Baumarkt Neustadt in Holstein"
  },
  {
    "shortName": "Toom Baumarkt",
    "company": "",
    "street1": "Metkenberg 4",
    "street2": "",
    "zip": 23970,
    "city": "Wismar-Redentin",
    "country": "Deutschland",
    "tel": "+49 3841 222410",
    "telBranch": "+49 3841 222410",
    "mail": "",
    "web": "",
    "oez": "",
    "lat": 53.92563,
    "lng": 11.48709,
    "key": "Toom Baumarkt Wismar-Redentin 23970 Metkenberg 4",
    "name": "Toom Baumarkt Wismar-Redentin"
  },
  {
    "shortName": "Toom Baumarkt",
    "company": "",
    "street1": "Rendsburger Landstraße 225",
    "street2": "",
    "zip": 24113,
    "city": "Kiel-Hassee",
    "country": "Deutschland",
    "tel": "+49 431 2109310",
    "telBranch": "+49 431 2109310",
    "mail": "",
    "web": "",
    "oez": "",
    "lat": 54.2985,
    "lng": 10.0891,
    "key": "Toom Baumarkt Kiel-Hassee 24113 Rendsburger Landstraße 225",
    "name": "Toom Baumarkt Kiel-Hassee"
  },
  {
    "shortName": "BAUHAUS",
    "company": "",
    "street1": "Gutenbergstraße 79",
    "street2": "",
    "zip": 24116,
    "city": "Kiel - Ravensberg",
    "country": "Deutschland",
    "tel": "",
    "telBranch": "+49 431 6902150",
    "mail": "",
    "web": "",
    "oez": "",
    "lat": 54.33251,
    "lng": 10.11405,
    "key": "BAUHAUS Kiel - Ravensberg 24116 Gutenbergstraße 79",
    "name": "BAUHAUS Kiel - Ravensberg"
  },
  {
    "shortName": "Hornbach",
    "company": "HORNBACH BM 619",
    "street1": "Theodor-Heuss-Ring 136",
    "street2": "",
    "zip": 24143,
    "city": "Kiel",
    "country": "Deutschland",
    "tel": "",
    "telBranch": "+49 431 259560",
    "mail": "",
    "web": "",
    "oez": "",
    "lat": 54.30054,
    "lng": 10.14103,
    "key": "Hornbach Kiel 24143 Theodor-Heuss-Ring 136",
    "name": "Hornbach Kiel"
  },
  {
    "shortName": "BAUHAUS",
    "company": "",
    "street1": "Klausdorfer Straße 28-32",
    "street2": "",
    "zip": 24223,
    "city": "Schwentinental",
    "country": "Deutschland",
    "tel": "",
    "telBranch": "+49 354 655580",
    "mail": "",
    "web": "",
    "oez": "",
    "lat": 54.28879,
    "lng": 10.22858,
    "key": "BAUHAUS Schwentinental 24223 Klausdorfer Straße 28-32",
    "name": "BAUHAUS Schwentinental"
  },
  {
    "shortName": "Toom Baumarkt",
    "company": "",
    "street1": "Rendsburger Straße 104",
    "street2": "",
    "zip": 24537,
    "city": "Neumünster-Gartenstadt",
    "country": "Deutschland",
    "tel": "+49 4321 403696-0",
    "telBranch": "+49 4321 403696-0",
    "mail": "",
    "web": "",
    "oez": "",
    "lat": 54.08766,
    "lng": 9.97828,
    "key": "Toom Baumarkt Neumünster-Gartenstadt 24537 Rendsburger Straße 104",
    "name": "Toom Baumarkt Neumünster-Gartenstadt"
  },
  {
    "shortName": "Toom Baumarkt",
    "company": "",
    "street1": "Heinrich-Sebelin-Straße 1",
    "street2": "",
    "zip": 24558,
    "city": "Henstedt-Ulzburg",
    "country": "Deutschland",
    "tel": "+49 4193 756610",
    "telBranch": "+49 4193 756610",
    "mail": "",
    "web": "",
    "oez": "",
    "lat": 53.80064,
    "lng": 9.98103,
    "key": "Toom Baumarkt Henstedt-Ulzburg 24558 Heinrich-Sebelin-Straße 1",
    "name": "Toom Baumarkt Henstedt-Ulzburg"
  },
  {
    "shortName": "Toom Baumarkt",
    "company": "",
    "street1": "Friedrichstädter Straße 47-57",
    "street2": "",
    "zip": 24768,
    "city": "Rendsburg",
    "country": "Deutschland",
    "tel": "+49 4331 4346510",
    "telBranch": "+49 4331 4346510",
    "mail": "",
    "web": "",
    "oez": "",
    "lat": 54.31835,
    "lng": 9.62566,
    "key": "Toom Baumarkt Rendsburg 24768 Friedrichstädter Straße 47-57",
    "name": "Toom Baumarkt Rendsburg"
  },
  {
    "shortName": "Toom Baumarkt",
    "company": "",
    "street1": "St. Jürgener Straße 53",
    "street2": "",
    "zip": 24837,
    "city": "Schleswig ",
    "country": "Deutschland",
    "tel": "+49 4621 95920",
    "telBranch": "+49 4621 95920",
    "mail": "",
    "web": "",
    "oez": "",
    "lat": 54.53183,
    "lng": 9.57269,
    "key": "Toom Baumarkt Schleswig  24837 St. Jürgener Straße 53",
    "name": "Toom Baumarkt Schleswig "
  },
  {
    "shortName": "BAUHAUS",
    "company": "",
    "street1": "Schleswiger Str.107-109",
    "street2": "",
    "zip": 24941,
    "city": "Flensburg",
    "country": "Deutschland",
    "tel": "",
    "telBranch": "+49 354 655580",
    "mail": "",
    "web": "",
    "oez": "",
    "lat": 54.76434,
    "lng": 9.43619,
    "key": "BAUHAUS Flensburg 24941 Schleswiger Str.107-109",
    "name": "BAUHAUS Flensburg"
  },
  {
    "shortName": "Hornbach",
    "company": "Biel/Bienne",
    "street1": "Längfeldweg 140",
    "street2": "",
    "zip": 2504,
    "city": "Biel/Bienne",
    "country": "Schweiz",
    "tel": "+41 32 4761-000",
    "telBranch": "+41 32 4761-000",
    "mail": "",
    "web": "",
    "oez": "",
    "lat": 47.16099,
    "lng": 7.29747,
    "key": "Hornbach Biel/Bienne 2504 Längfeldweg 140",
    "name": "Hornbach Biel/Bienne"
  },
  {
    "shortName": "Toom Baumarkt",
    "company": "",
    "street1": "Lise-Meitner-Straße 2",
    "street2": "",
    "zip": 25337,
    "city": "Elmshorn",
    "country": "Deutschland",
    "tel": "+49 4121 4638510",
    "telBranch": "+49 4121 4638510",
    "mail": "",
    "web": "",
    "oez": "",
    "lat": 53.74706,
    "lng": 9.69429,
    "key": "Toom Baumarkt Elmshorn 25337 Lise-Meitner-Straße 2",
    "name": "Toom Baumarkt Elmshorn"
  },
  {
    "shortName": "Toom Baumarkt",
    "company": "",
    "street1": "Wedeler Weg",
    "street2": "",
    "zip": 25421,
    "city": "Pinneberg",
    "country": "Deutschland",
    "tel": "+49 4101 8520710",
    "telBranch": "+49 4101 8520710",
    "mail": "",
    "web": "",
    "oez": "",
    "lat": 53.65289,
    "lng": 9.77577,
    "key": "Toom Baumarkt Pinneberg 25421 Wedeler Weg",
    "name": "Toom Baumarkt Pinneberg"
  },
  {
    "shortName": "Toom Baumarkt",
    "company": "",
    "street1": "Schanzenstraße 5",
    "street2": "",
    "zip": 25746,
    "city": "Heide",
    "country": "Deutschland",
    "tel": "+49 481 850220",
    "telBranch": "+49 481 850220",
    "mail": "",
    "web": "",
    "oez": "",
    "lat": 54.19661,
    "lng": 9.1287,
    "key": "Toom Baumarkt Heide 25746 Schanzenstraße 5",
    "name": "Toom Baumarkt Heide"
  },
  {
    "shortName": "Hornbach",
    "company": "HORNBACH BM 580",
    "street1": "Edewechter Landstraße 149",
    "street2": "",
    "zip": 26131,
    "city": "Oldenburg",
    "country": "Deutschland",
    "tel": "",
    "telBranch": "+49 441 570150",
    "mail": "",
    "web": "",
    "oez": "",
    "lat": 53.12556,
    "lng": 8.16677,
    "key": "Hornbach Oldenburg 26131 Edewechter Landstraße 149",
    "name": "Hornbach Oldenburg"
  },
  {
    "shortName": "Toom Baumarkt",
    "company": "",
    "street1": "Alter Postweg 125",
    "street2": "",
    "zip": 26133,
    "city": "Oldenburg",
    "country": "Deutschland",
    "tel": "+49 441 944090",
    "telBranch": "+49 441 944090",
    "mail": "",
    "web": "",
    "oez": "",
    "lat": 53.10273,
    "lng": 8.20936,
    "key": "Toom Baumarkt Oldenburg 26133 Alter Postweg 125",
    "name": "Toom Baumarkt Oldenburg"
  },
  {
    "shortName": "Hornbach",
    "company": "HORNBACH BM 584",
    "street1": "Heuweg",
    "street2": "",
    "zip": 26389,
    "city": "Wilhelmshaven",
    "country": "Deutschland",
    "tel": "",
    "telBranch": "+49 4421 755110",
    "mail": "",
    "web": "",
    "oez": "",
    "lat": 53.52361,
    "lng": 8.06106,
    "key": "Hornbach Wilhelmshaven 26389 Heuweg",
    "name": "Hornbach Wilhelmshaven"
  },
  {
    "shortName": "Toom Baumarkt",
    "company": "",
    "street1": "Gewerbestraße 1",
    "street2": "",
    "zip": 26506,
    "city": "Norden",
    "country": "Deutschland",
    "tel": "+49 4931 95170",
    "telBranch": "+49 4931 95170",
    "mail": "",
    "web": "",
    "oez": "",
    "lat": 53.60129,
    "lng": 7.18586,
    "key": "Toom Baumarkt Norden 26506 Gewerbestraße 1",
    "name": "Toom Baumarkt Norden"
  },
  {
    "shortName": "Toom Baumarkt",
    "company": "",
    "street1": "Arentestraße 2",
    "street2": "",
    "zip": 26607,
    "city": "Aurich",
    "country": "Deutschland",
    "tel": "+49 4941 97120",
    "telBranch": "+49 4941 97120",
    "mail": "",
    "web": "",
    "oez": "",
    "lat": 53.49752,
    "lng": 7.49123,
    "key": "Toom Baumarkt Aurich 26607 Arentestraße 2",
    "name": "Toom Baumarkt Aurich"
  },
  {
    "shortName": "Toom Baumarkt",
    "company": "",
    "street1": "Nüttermoorer Straße 2",
    "street2": "",
    "zip": 26789,
    "city": "Leer",
    "country": "Deutschland",
    "tel": "+49 491 45410310",
    "telBranch": "+49 491 45410310",
    "mail": "",
    "web": "",
    "oez": "",
    "lat": 53.25995,
    "lng": 7.45691,
    "key": "Toom Baumarkt Leer 26789 Nüttermoorer Straße 2",
    "name": "Toom Baumarkt Leer"
  },
  {
    "shortName": "Hornbach",
    "company": "HORNBACH BM 682",
    "street1": "Wiener Neustädter Str. 01",
    "street2": "",
    "zip": 2721,
    "city": "Bad Fischau",
    "country": "Österreich",
    "tel": "",
    "telBranch": "+43 2622 425400",
    "mail": "",
    "web": "",
    "oez": "",
    "lat": 47.82854,
    "lng": 16.17137,
    "key": "Hornbach Bad Fischau 2721 Wiener Neustädter Str. 01",
    "name": "Hornbach Bad Fischau"
  },
  {
    "shortName": "Toom Baumarkt",
    "company": "",
    "street1": "Zum Hochkamp 1",
    "street2": "",
    "zip": 27404,
    "city": "Zeven",
    "country": "Deutschland",
    "tel": "+49 4281 9593310",
    "telBranch": "+49 4281 9593310",
    "mail": "",
    "web": "",
    "oez": "",
    "lat": 53.27697,
    "lng": 9.29404,
    "key": "Toom Baumarkt Zeven 27404 Zum Hochkamp 1",
    "name": "Toom Baumarkt Zeven"
  },
  {
    "shortName": "Toom Baumarkt",
    "company": "",
    "street1": "Meyerstraße 46",
    "street2": "",
    "zip": 27472,
    "city": "Cuxhaven",
    "country": "Deutschland",
    "tel": "+49 4721 707710",
    "telBranch": "+49 4721 707710",
    "mail": "",
    "web": "",
    "oez": "",
    "lat": 53.85352,
    "lng": 8.71616,
    "key": "Toom Baumarkt Cuxhaven 27472 Meyerstraße 46",
    "name": "Toom Baumarkt Cuxhaven"
  },
  {
    "shortName": "Hornbach",
    "company": "HORNBACH BM 585",
    "street1": "Seeborg 6",
    "street2": "",
    "zip": 27572,
    "city": "Bremerhaven",
    "country": "Deutschland",
    "tel": "",
    "telBranch": "+49 471 979230",
    "mail": "",
    "web": "",
    "oez": "",
    "lat": 53.48786,
    "lng": 8.59848,
    "key": "Hornbach Bremerhaven 27572 Seeborg 6",
    "name": "Hornbach Bremerhaven"
  },
  {
    "shortName": "Toom Baumarkt",
    "company": "",
    "street1": "Am Pumpelberg 5+6",
    "street2": "",
    "zip": 27711,
    "city": "Osterholz-Scharmbeck",
    "country": "Deutschland",
    "tel": "+49 4791 5027910",
    "telBranch": "+49 4791 5027910",
    "mail": "",
    "web": "",
    "oez": "",
    "lat": 53.23191,
    "lng": 8.77684,
    "key": "Toom Baumarkt Osterholz-Scharmbeck 27711 Am Pumpelberg 5+6",
    "name": "Toom Baumarkt Osterholz-Scharmbeck"
  },
  {
    "shortName": "Toom Baumarkt",
    "company": "",
    "street1": "Otto-Hahn-Straße 1",
    "street2": "",
    "zip": 27721,
    "city": "Ritterhude-Ihlpohl",
    "country": "Deutschland",
    "tel": "+49 421 693270",
    "telBranch": "+49 421 693270",
    "mail": "",
    "web": "",
    "oez": "",
    "lat": 53.18863,
    "lng": 8.70701,
    "key": "Toom Baumarkt Ritterhude-Ihlpohl 27721 Otto-Hahn-Straße 1",
    "name": "Toom Baumarkt Ritterhude-Ihlpohl"
  },
  {
    "shortName": "Toom Baumarkt",
    "company": "",
    "street1": "Westring 6",
    "street2": "",
    "zip": 27793,
    "city": "Wildeshausen",
    "country": "Deutschland",
    "tel": "+49 4431 7399810",
    "telBranch": "+49 4431 7399810",
    "mail": "",
    "web": "",
    "oez": "",
    "lat": 52.8951059,
    "lng": 8.4136272,
    "key": "Toom Baumarkt Wildeshausen 27793 Westring 6",
    "name": "Toom Baumarkt Wildeshausen"
  },
  {
    "shortName": "Hornbach",
    "company": "HORNBACH BM 627",
    "street1": "Duckwitzstraße 49",
    "street2": "",
    "zip": 28199,
    "city": "Bremen",
    "country": "Deutschland",
    "tel": "",
    "telBranch": "+49 421 5487800",
    "mail": "",
    "web": "",
    "oez": "",
    "lat": 53.06251,
    "lng": 8.7746,
    "key": "Hornbach Bremen 28199 Duckwitzstraße 49",
    "name": "Hornbach Bremen"
  },
  {
    "shortName": "BAUHAUS",
    "company": "",
    "street1": "Stresemannstrasse 14",
    "street2": "",
    "zip": 28207,
    "city": "Bremen",
    "country": "Deutschland",
    "tel": "",
    "telBranch": "+49 421 485560",
    "mail": "",
    "web": "",
    "oez": "",
    "lat": 53.07245,
    "lng": 8.86271,
    "key": "BAUHAUS Bremen 28207 Stresemannstrasse 14",
    "name": "BAUHAUS Bremen"
  },
  {
    "shortName": "BAUHAUS",
    "company": "",
    "street1": "Hans-Bredow-Str. 20",
    "street2": "",
    "zip": 28307,
    "city": "Bremen",
    "country": "Deutschland",
    "tel": "",
    "telBranch": "+49 421 5157400",
    "mail": "",
    "web": "",
    "oez": "",
    "lat": 53.05251,
    "lng": 8.96246,
    "key": "BAUHAUS Bremen 28307 Hans-Bredow-Str. 20",
    "name": "BAUHAUS Bremen"
  },
  {
    "shortName": "Hornbach",
    "company": "HORNBACH BM 604",
    "street1": "Werner-Steenken-Straße 5",
    "street2": "",
    "zip": 28307,
    "city": "Bremen",
    "country": "Deutschland",
    "tel": "",
    "telBranch": "+49 421 636 940",
    "mail": "",
    "web": "",
    "oez": "",
    "lat": 53.05318,
    "lng": 8.95975,
    "key": "Hornbach Bremen 28307 Werner-Steenken-Straße 5",
    "name": "Hornbach Bremen"
  },
  {
    "shortName": "Toom Baumarkt",
    "company": "",
    "street1": "Vegesacker Heerstraße 198",
    "street2": "",
    "zip": 28757,
    "city": "Bremen - Vegesack",
    "country": "Deutschland",
    "tel": "+49 421 6921430",
    "telBranch": "+49 421 6921430",
    "mail": "",
    "web": "",
    "oez": "",
    "lat": 53.17309,
    "lng": 8.63676,
    "key": "Toom Baumarkt Bremen - Vegesack 28757 Vegesacker Heerstraße 198",
    "name": "Toom Baumarkt Bremen - Vegesack"
  },
  {
    "shortName": "Toom Baumarkt",
    "company": "",
    "street1": "Weserstrandstraße 17",
    "street2": "",
    "zip": 28779,
    "city": "Bremen - Blumenthal",
    "country": "Deutschland",
    "tel": "+49 421 47859810",
    "telBranch": "+49 421 47859810",
    "mail": "",
    "web": "",
    "oez": "",
    "lat": 53.18069,
    "lng": 8.57006,
    "key": "Toom Baumarkt Bremen - Blumenthal 28779 Weserstrandstraße 17",
    "name": "Toom Baumarkt Bremen - Blumenthal"
  },
  {
    "shortName": "BAUHAUS",
    "company": "",
    "street1": "3-K Weg 27",
    "street2": "",
    "zip": 28816,
    "city": "Stuhr/Groß-Mackenstedt",
    "country": "Deutschland",
    "tel": "",
    "telBranch": "+49 353 655580",
    "mail": "",
    "web": "",
    "oez": "",
    "lat": 53.00983,
    "lng": 8.70533,
    "key": "BAUHAUS Stuhr/Groß-Mackenstedt 28816 3-K Weg 27",
    "name": "BAUHAUS Stuhr/Groß-Mackenstedt"
  },
  {
    "shortName": "Toom Baumarkt",
    "company": "",
    "street1": "Gottlieb-Daimler-Straße 6",
    "street2": "",
    "zip": 28816,
    "city": "Stuhr-Brinkum",
    "country": "Deutschland",
    "tel": "+49 421 258430",
    "telBranch": "+49 421 258430",
    "mail": "",
    "web": "",
    "oez": "",
    "lat": 53.02643,
    "lng": 8.80612,
    "key": "Toom Baumarkt Stuhr-Brinkum 28816 Gottlieb-Daimler-Straße 6",
    "name": "Toom Baumarkt Stuhr-Brinkum"
  },
  {
    "shortName": "Toom Baumarkt",
    "company": "",
    "street1": "Am Ohlhorstberge 7",
    "street2": "",
    "zip": 29227,
    "city": "Celle",
    "country": "Deutschland",
    "tel": "+49 5141 95940",
    "telBranch": "+49 5141 95940",
    "mail": "",
    "web": "",
    "oez": "",
    "lat": 52.59224,
    "lng": 10.06676,
    "key": "Toom Baumarkt Celle 29227 Am Ohlhorstberge 7",
    "name": "Toom Baumarkt Celle"
  },
  {
    "shortName": "Toom Baumarkt",
    "company": "",
    "street1": "Hambrocker Straße 55",
    "street2": "",
    "zip": 29525,
    "city": "Uelzen",
    "country": "Deutschland",
    "tel": "+49 581 9718010",
    "telBranch": "+49 581 9718010",
    "mail": "",
    "web": "",
    "oez": "",
    "lat": 52.9601245,
    "lng": 10.5683035,
    "key": "Toom Baumarkt Uelzen 29525 Hambrocker Straße 55",
    "name": "Toom Baumarkt Uelzen"
  },
  {
    "shortName": "Toom Baumarkt",
    "company": "",
    "street1": "Bockhorner Weg 9",
    "street2": "",
    "zip": 29683,
    "city": "Bad Fallingbostel",
    "country": "Deutschland",
    "tel": "+49 5162 98950",
    "telBranch": "+49 5162 98950",
    "mail": "",
    "web": "",
    "oez": "",
    "lat": 52.85063,
    "lng": 9.69249,
    "key": "Toom Baumarkt Bad Fallingbostel 29683 Bockhorner Weg 9",
    "name": "Toom Baumarkt Bad Fallingbostel"
  },
  {
    "shortName": "BAUHAUS",
    "company": "",
    "street1": "Schulenburger Landstr.125",
    "street2": "",
    "zip": 30165,
    "city": "Hannover",
    "country": "Deutschland",
    "tel": "",
    "telBranch": "+49 511 358150",
    "mail": "",
    "web": "",
    "oez": "",
    "lat": 52.40946,
    "lng": 9.70695,
    "key": "BAUHAUS Hannover 30165 Schulenburger Landstr.125",
    "name": "BAUHAUS Hannover"
  },
  {
    "shortName": "Toom Baumarkt",
    "company": "",
    "street1": "Industrieweg 29",
    "street2": "",
    "zip": 30179,
    "city": "Hannover",
    "country": "Deutschland",
    "tel": "+49 511 39089710",
    "telBranch": "+49 511 39089710",
    "mail": "",
    "web": "",
    "oez": "",
    "lat": 52.41986,
    "lng": 9.72847,
    "key": "Toom Baumarkt Hannover 30179 Industrieweg 29",
    "name": "Toom Baumarkt Hannover"
  },
  {
    "shortName": "Hornbach",
    "company": "HORNBACH BM 586",
    "street1": "Bornumerstraße 19",
    "street2": "",
    "zip": 30449,
    "city": "Hannover-Linden",
    "country": "Deutschland",
    "tel": "",
    "telBranch": "+49 511 1235910",
    "mail": "",
    "web": "",
    "oez": "",
    "lat": 52.35959,
    "lng": 9.71143,
    "key": "Hornbach Hannover-Linden 30449 Bornumerstraße 19",
    "name": "Hornbach Hannover-Linden"
  },
  {
    "shortName": "Hornbach",
    "company": "HORNBACH BM 589",
    "street1": "Langenhagener Straße 1",
    "street2": "",
    "zip": 30823,
    "city": "Hannover-Garbsen",
    "country": "Deutschland",
    "tel": "",
    "telBranch": "+49 511 2794670",
    "mail": "",
    "web": "",
    "oez": "",
    "lat": 52.42966,
    "lng": 9.62057,
    "key": "Hornbach Hannover-Garbsen 30823 Langenhagener Straße 1",
    "name": "Hornbach Hannover-Garbsen"
  },
  {
    "shortName": "Hellweg",
    "company": "",
    "street1": "Westfalenstraße 40-44",
    "street2": "",
    "zip": 30853,
    "city": "Langenhagen ",
    "country": "Deutschland",
    "tel": "+49 511 7639880",
    "telBranch": "+49 511 7639880",
    "mail": "",
    "web": "",
    "oez": "",
    "lat": 52.44463,
    "lng": 9.722,
    "key": "Hellweg Langenhagen  30853 Westfalenstraße 40-44",
    "name": "Hellweg Langenhagen "
  },
  {
    "shortName": "BAUHAUS",
    "company": "",
    "street1": "Erich-Panitz-Str. 1",
    "street2": "",
    "zip": 30880,
    "city": "Laatzen",
    "country": "Deutschland",
    "tel": "",
    "telBranch": "+49 511 8981500",
    "mail": "",
    "web": "",
    "oez": "",
    "lat": 52.30906,
    "lng": 9.80455,
    "key": "BAUHAUS Laatzen 30880 Erich-Panitz-Str. 1",
    "name": "BAUHAUS Laatzen"
  },
  {
    "shortName": "Hornbach",
    "company": "HORNBACH BM 545",
    "street1": "Ernst-Grote-Straße 2",
    "street2": "",
    "zip": 30916,
    "city": "Isernhagen / Altwarmbüchen",
    "country": "Deutschland",
    "tel": "",
    "telBranch": "+49 511 615690",
    "mail": "",
    "web": "",
    "oez": "",
    "lat": 52.42671,
    "lng": 9.84488,
    "key": "Hornbach Isernhagen / Altwarmbüchen 30916 Ernst-Grote-Straße 2",
    "name": "Hornbach Isernhagen / Altwarmbüchen"
  },
  {
    "shortName": "Hornbach",
    "company": "HORNBACH BM 689",
    "street1": "Stifterstr. / Sprazern",
    "street2": "",
    "zip": 3100,
    "city": "St. Poelten",
    "country": "Österreich",
    "tel": "",
    "telBranch": "+43 2742 740690",
    "mail": "",
    "web": "",
    "oez": "",
    "lat": 48.1851,
    "lng": 15.61168,
    "key": "Hornbach St. Poelten 3100 Stifterstr. / Sprazern",
    "name": "Hornbach St. Poelten"
  },
  {
    "shortName": "Toom Baumarkt",
    "company": "",
    "street1": "Hannoversche Straße 45",
    "street2": "",
    "zip": 31061,
    "city": "Alfeld",
    "country": "Deutschland",
    "tel": "+49 5181 917810",
    "telBranch": "+49 5181 917810",
    "mail": "",
    "web": "",
    "oez": "",
    "lat": 51.98632,
    "lng": 9.80527,
    "key": "Toom Baumarkt Alfeld 31061 Hannoversche Straße 45",
    "name": "Toom Baumarkt Alfeld"
  },
  {
    "shortName": "Toom Baumarkt",
    "company": "",
    "street1": "Industriestraße 1",
    "street2": "",
    "zip": 31515,
    "city": "Wunstorf",
    "country": "Deutschland",
    "tel": "+49 5031 95730",
    "telBranch": "+49 5031 95730",
    "mail": "",
    "web": "",
    "oez": "",
    "lat": 52.41843,
    "lng": 9.44982,
    "key": "Toom Baumarkt Wunstorf 31515 Industriestraße 1",
    "name": "Toom Baumarkt Wunstorf"
  },
  {
    "shortName": "Hellweg",
    "company": "",
    "street1": "Bückethaler Straße 2",
    "street2": "",
    "zip": 31542,
    "city": "Bad Nenndorf ",
    "country": "Deutschland",
    "tel": "+49 5723 798090",
    "telBranch": "+49 5723 798090",
    "mail": "",
    "web": "",
    "oez": "",
    "lat": 52.33475,
    "lng": 9.40137,
    "key": "Hellweg Bad Nenndorf  31542 Bückethaler Straße 2",
    "name": "Hellweg Bad Nenndorf "
  },
  {
    "shortName": "Toom Baumarkt",
    "company": "",
    "street1": "Breite Straße 16a",
    "street2": "",
    "zip": 31737,
    "city": "Rinteln",
    "country": "Deutschland",
    "tel": "+49 5751 97130",
    "telBranch": "+49 5751 97130",
    "mail": "",
    "web": "",
    "oez": "",
    "lat": 52.19588,
    "lng": 9.0732,
    "key": "Toom Baumarkt Rinteln 31737 Breite Straße 16a",
    "name": "Toom Baumarkt Rinteln"
  },
  {
    "shortName": "Toom Baumarkt",
    "company": "",
    "street1": "Stegerwaldstraße 1",
    "street2": "",
    "zip": 31789,
    "city": "Hameln",
    "country": "Deutschland",
    "tel": "+49 5151 9629510",
    "telBranch": "+49 5151 9629510",
    "mail": "",
    "web": "",
    "oez": "",
    "lat": 52.08084,
    "lng": 9.33849,
    "key": "Toom Baumarkt Hameln 31789 Stegerwaldstraße 1",
    "name": "Toom Baumarkt Hameln"
  },
  {
    "shortName": "Toom Baumarkt",
    "company": "",
    "street1": "Im Babenbecker Feld 56",
    "street2": "",
    "zip": 32051,
    "city": "Herford",
    "country": "Deutschland",
    "tel": "+49 5221 34700",
    "telBranch": "+49 5221 34700",
    "mail": "",
    "web": "",
    "oez": "",
    "lat": 52.12956,
    "lng": 8.64373,
    "key": "Toom Baumarkt Herford 32051 Im Babenbecker Feld 56",
    "name": "Toom Baumarkt Herford"
  },